"Rec #","Establishment ID","Inspection ID","Establishment Name","Establishment Type","Establishment Address","Latitude","Longitude","Establishment Status","Min. Inspections Per Year","Infraction Details","Inspection Date","Severity","Action","Outcome","Amount Fined"
"1","10500438","104918556","1 PLUS 1 PIZZA","Food Take Out","361 OAKWOOD AVE","43.68725","-79.43842","Pass","2","FOOD PREMISE NOT MAINTAINED WITH FOOD HANDLING ROOM IN SANITARY CONDITION - SEC. 7(1)(E) ","2021-12-08","M - Minor","Notice to Comply","",""
"2","10441981","104906131","10tation Event Catering","Food Caterer","232 NORSEMAN ST","43.63225","-79.52951","Pass","3","","2021-11-10","","","",""
"3","10589964","104916089","12 TABLES","Restaurant","1552 AVENUE RD","43.72334","-79.41635","Pass","2","FOOD PREMISE NOT MAINTAINED TO KEEP FOOD-HANDLING ROOM FREE FROM MATERIALS NOT REGULARLY USED - SEC. 7(1)(F) ","2021-12-01","M - Minor","Notice to Comply","",""
"4","9348578","104816923","147 ELDER ST INC.","Retirement Homes(Licensed)","147 ELDER ST","43.76273","-79.45402","Pass","3","","2021-03-17","","","",""
"5","9013060","104802327","149 TYNDALL HOUSE","Boarding / Lodging Home - Kitchen","149 TYNDALL AVE","43.63816","-79.42864","Pass","3","","2021-02-04","","","",""
"6","10742080","104900953","156 CUMBERLAND","Restaurant","156 CUMBERLAND ST","43.67005","-79.39334","Pass","2","","2021-10-27","","","",""
"7","10553551","104909851","1775111 ONTARIO LIMITED","Bakery","2242 KINGSTON RD","43.70464","-79.25281","Pass","2","","2021-11-24","","","",""
"8","10569465","104914631","1915 LANZHOU RAMEN","Restaurant","185 DUNDAS ST W","43.655","-79.38665","Pass","2","FOOD PREMISE NOT MAINTAINED WITH CLEAN FLOORS IN FOOD-HANDLING ROOM - SEC. 7(1)(G)  ","2021-11-29","M - Minor","Notice to Comply","",""
"9","10741800","104899104","1976 KITCHEN & BAR RESTAURANT","Restaurant","918 WILSON AVE","43.73023","-79.46979","Pass","3","Fail to protect against entry of pests - Sec. 13(1)","2021-10-22","M - Minor","Notice to Comply","",""
"10","10741800","104899104","1976 KITCHEN & BAR RESTAURANT","Restaurant","918 WILSON AVE","43.73023","-79.46979","Pass","3","FOOD PREMISE NOT MAINTAINED WITH CLEAN FLOORS IN FOOD-HANDLING ROOM - SEC. 7(1)(G)  ","2021-10-22","M - Minor","Notice to Comply","",""
"11","10318628","104794235","19TH HOLE SPORTS BAR AND GRILL","Restaurant","434 ROGERS RD","43.68279","-79.46394","Pass","2","","2021-01-12","","","",""
"12","10725526","104810406","2 AMIGOS LATINOS RESTAURANT","Food Take Out","1650 JANE ST, Unit-1","43.70099","-79.50362","Pass","2","","2021-03-01","","","",""
"13","10487649","104846895","2 BROS CUISINE","Food Take Out","1500 ROYAL YORK RD, UNIT-34","43.69163","-79.53185","Pass","2","","2021-06-04","","","",""
"14","10349645","104808466","2-4-1 PIZZA","Food Take Out","1756 LAWRENCE AVE E","43.74284","-79.30787","Pass","2","Fail to provide adequate number of handwashing stations - Sec. 7(3)(c)   ","2021-02-23","S - Significant","Notice to Comply","",""
"15","10349645","104808466","2-4-1 PIZZA","Food Take Out","1756 LAWRENCE AVE E","43.74284","-79.30787","Pass","2","Fail to Hold a Valid Food Handler's Certificate  - Sec. 545-157E(17)(b) ","2021-02-23","NA - Not Applicable","Notice to Comply","",""
"16","10349645","104808506","2-4-1 PIZZA","Food Take Out","1756 LAWRENCE AVE E","43.74284","-79.30787","Pass","2","","2021-03-02","","","",""
"17","10559262","104833655","241 PIZZA","Food Take Out","142 PARLIAMENT ST","43.6546","-79.36402","Pass","3","Fail to ensure completion of food handling training by food handler or supervisor - Sec. 32","2021-04-30","NA - Not Applicable","Notice to Comply","",""
"18","10604803","104902630","241 PIZZA","Food Take Out","451 PARLIAMENT ST","43.66356","-79.36755","Pass","2","","2021-11-01","","","",""
"19","10405652","104825720","244 PIZZA & WINGS","Food Take Out","1166 WESTON RD","43.6872","-79.49055","Pass","2","","2021-04-13","","","",""
"20","10405652","104849003","244 PIZZA & WINGS","Food Take Out","1166 WESTON RD","43.6872","-79.49055","Pass","2","FOOD PREMISE NOT MAINTAINED WITH CLEAN FLOORS IN FOOD-HANDLING ROOM - SEC. 7(1)(G)  ","2021-06-09","M - Minor","Notice to Comply","",""
"21","10428037","104916548","3030","Restaurant","3030 DUNDAS ST W","43.66583","-79.4705","Pass","3","","2021-12-02","","","",""
"22","9003137","104886359","360 RESTAURANT","Restaurant","301 FRONT ST W, CN TOWER","43.64372","-79.38844","Pass","2","","2021-09-23","","","",""
"23","10729436","104832805","3A FOOD PRODUCTS","Food Take Out","23 MILLIKEN BLVD, Unit-B18","43.80414","-79.29508","Pass","2","","2021-04-28","","","",""
"24","10732968","104853759","43N Degree BBQ","Restaurant","5287 YONGE ST","43.77275","-79.41343","Pass","2","","2021-06-24","","","",""
"25","10732968","104909814","43N Degree BBQ","Restaurant","5287 YONGE ST","43.77275","-79.41343","Pass","2","","2021-11-17","","","",""
"26","10739955","104888980","44 TORONTO","Cocktail Bar / Beverage Room","627 KING ST W, Unit-P1/P2","43.64398","-79.40141","Pass","2","","2021-09-28","","","",""
"27","10617002","104846651","5 SPICE DINING","Restaurant","2826 MARKHAM RD","43.82307","-79.24781","Pass","3","Food premise maintained in manner permitting adverse effect on food - Sec. 7(1)(a)(iii) ","2021-06-04","C - Crucial","Notice to Comply","",""
"28","10617002","104846651","5 SPICE DINING","Restaurant","2826 MARKHAM RD","43.82307","-79.24781","Pass","3","Maintain potentially hazardous foods at internal temperature between 4 C and 60 C -  Sec. 27(1)","2021-06-04","C - Crucial","Notice to Comply","",""
"29","10617002","104846916","5 SPICE DINING","Restaurant","2826 MARKHAM RD","43.82307","-79.24781","Pass","3","","2021-06-08","","","",""
"30","10700371","104843045","51 LISGAR-TPH-AANGEN","Serving Kitchen","51 LISGAR ST","43.64229","-79.42296","Pass","2","","2021-05-26","","","",""
"31","9000116","104819903","521 CAFE","Restaurant","521 DANFORTH AVE","43.67804","-79.34821","Pass","1","","2021-03-24","","","",""
"32","10700853","104832014","7 Baker","Food Take Out","300 BOROUGH DR, Unit-R007","43.77629","-79.25802","Pass","2","","2021-08-19","","","",""
"33","9000144","104873939","7 WEST CAFE","Restaurant","7 CHARLES ST W","43.6685","-79.38669","Pass","2","Fail to protect food from contamination or adulteration - Sec. 26(1) ","2021-08-19","C - Crucial","Notice to Comply","",""
"34","9000144","104873939","7 WEST CAFE","Restaurant","7 CHARLES ST W","43.6685","-79.38669","Pass","2","FOOD PREMISE NOT MAINTAINED WITH FOOD HANDLING ROOM IN SANITARY CONDITION - SEC. 7(1)(E) ","2021-08-19","M - Minor","Notice to Comply","",""
"35","9000144","104873939","7 WEST CAFE","Restaurant","7 CHARLES ST W","43.6685","-79.38669","Pass","2","OPERATE FOOD PREMISE - MECHANICAL EQUIPMENT NOT MAINTAINED TO PROVIDE SUFFICIENT CHEMICAL SOLUTION RINSE - SEC. 20(1)(A)(II)(B) ","2021-08-19","S - Significant","Notice to Comply","",""
"36","9000144","104873939","7 WEST CAFE","Restaurant","7 CHARLES ST W","43.6685","-79.38669","Pass","2","Fail to provide adequate number of handwashing stations - Sec. 7(3)(c)   ","2021-08-19","S - Significant","Notice to Comply","",""
"37","9000144","104873939","7 WEST CAFE","Restaurant","7 CHARLES ST W","43.6685","-79.38669","Pass","2","FAIL TO ENSURE FOOD HANDLER IN FOOD PREMISE PROTECTS AGAINST CONTAMINATION BY HAIR - SEC.  33(1)(D)","2021-08-19","M - Minor","Notice to Comply","",""
"38","9000144","104873952","7 WEST CAFE","Restaurant","7 CHARLES ST W","43.6685","-79.38669","Pass","2","","2021-08-23","","","",""
"39","9000144","104909819","7 WEST CAFE","Restaurant","7 CHARLES ST W","43.6685","-79.38669","Pass","2","","2021-11-17","","","",""
"40","9013825","104825800","7-ELEVEN","Food Store (Convenience/Variety)","1390 WESTON RD","43.69105","-79.50129","Pass","2","","2021-04-13","","","",""
"41","9013829","104804307","7-ELEVEN","Food Store (Convenience/Variety)","2480 LAKE SHORE BLVD W","43.6131","-79.4901","Pass","2","","2021-01-18","","","",""
"42","9421826","104819262","7-ELEVEN","Food Store (Convenience/Variety)","1 EGLINTON AVE E","43.70659","-79.39777","Pass","2","","2021-03-23","","","",""
"43","10205717","104814169","7-ELEVEN","Food Take Out","980 ISLINGTON AVE","43.62909","-79.51737","Pass","2","","2021-05-21","","","",""
"44","10509153","104829167","8 Noodles/Eight Noodles","Restaurant","3309 SHEPPARD AVE E","43.7783","-79.30887","Pass","2","FAIL TO ENSURE EQUIPMENT SURFACE SANITIZED AS NECESSARY - SEC. 22","2021-04-20","M - Minor","Notice to Comply","",""
"45","10699275","104797067","99 MYTHIC TASTE - NORTH YORK","Restaurant","5418 YONGE ST","43.77553","-79.41525","Pass","2","","2021-01-25","","","",""
"46","10652896","104892734","99 SUSHI","Restaurant","170 EGLINTON AVE E","43.70804","-79.39322","Pass","3","","2021-10-06","","","",""
"47","9000200","104915926","A & W","Restaurant","2300 YONGE ST, Unit-21","43.70716","-79.39908","Pass","2","Food premise not maintained with walls in good repair in food-handling room - Sec. 7(1)(g)  ","2021-12-01","M - Minor","Notice to Comply","",""
"48","9000200","104915926","A & W","Restaurant","2300 YONGE ST, Unit-21","43.70716","-79.39908","Pass","2","Food premise not maintained with floors in good repair in food-handling room - Sec. 7(1)(g)  ","2021-12-01","M - Minor","Notice to Comply","",""
"49","9042935","104829966","A & W","Restaurant","1585 WARDEN AVE, Unit-4","43.76624","-79.30181","Pass","2","","2021-04-21","","","",""
"50","10450267","104844944","A & W","Restaurant","35 EGLINTON AVE E","43.70677","-79.39693","Pass","2","FOOD PREMISE NOT MAINTAINED WITH CLEAN FLOORS IN FOOD-HANDLING ROOM - SEC. 7(1)(G)  ","2021-05-31","M - Minor","Notice to Comply","",""
"51","10554107","104804519","A & W","Restaurant","496 YONGE ST","43.66309","-79.38403","Pass","2","","2021-02-09","","","",""
"52","10554107","104902008","A & W","Restaurant","496 YONGE ST","43.66309","-79.38403","Pass","2","","2021-10-29","","","",""
"53","10566778","104896664","A & W","Restaurant","832 COLLEGE ST","43.65461","-79.42265","Pass","2","","2021-10-19","","","",""
"54","10569318","104838826","A & W","Restaurant","1638 AVENUE RD","43.72582","-79.41742","Pass","2","","2021-05-13","","","",""
"55","10576306","104795453","A & W","Restaurant","8 MERCER ST","43.64598","-79.38994","Pass","2","","2021-01-15","","","",""
"56","10576306","104843255","A & W","Restaurant","8 MERCER ST","43.64598","-79.38994","Pass","2","","2021-05-26","","","",""
"57","10588324","104863124","A & W","Restaurant","2856 DUNDAS ST W","43.66558","-79.4649","Pass","2","","2021-07-19","","","",""
"58","10611892","104872995","A & W","Restaurant","75 BILLY BISHOP WAY, Unit-B7","43.73284","-79.45104","Pass","2","","2021-08-17","","","",""
"59","10624236","104792255","A & W","Restaurant","2633 YONGE ST, Unit-2625","43.71537","-79.39991","Pass","2","","2021-01-05","","","",""
"60","10640841","104797251","A & W","Restaurant","605 ROGERS RD","43.68162","-79.47451","Pass","2","","2021-01-20","","","",""
"61","10654459","104816856","A & W","Restaurant","45 OVERLEA BLVD","43.70555","-79.34626","Pass","2","","2021-03-17","","","",""
"62","10658923","104797269","A & W","Restaurant","355 CHURCH ST, Bldg-1","43.66043","-79.37848","Pass","2","","2021-01-20","","","",""
"63","10659061","104794739","A & W","Restaurant","3318 KEELE ST","43.73465","-79.48393","Pass","2","","2021-01-14","","","",""
"64","10670952","104801403","A & W","Restaurant","3571 SHEPPARD AVE E","43.78031","-79.29914","Pass","1","","2021-02-02","","","",""
"65","10670952","104821513","A & W","Restaurant","3571 SHEPPARD AVE E","43.78031","-79.29914","Pass","1","","2021-03-29","","","",""
"66","10726907","104818753","A & W","Restaurant","85 FRONT ST E","43.64899","-79.37235","Pass","2","","2021-03-22","","","",""
"67","10726907","104872026","A & W","Restaurant","85 FRONT ST E","43.64899","-79.37235","Pass","2","","2021-08-13","","","",""
"68","10728036","104825010","A & W","Restaurant","1530 ALBION RD","43.74177","-79.58461","Pass","2","","2021-04-08","","","",""
"69","10728036","104875500","A & W","Restaurant","1530 ALBION RD","43.74177","-79.58461","Pass","2","","2021-08-23","","","",""
"70","10733321","104855707","A & W","Restaurant","167 CHURCH ST, Unit-3","43.65444","-79.37596","Pass","2","","2021-06-29","","","",""
"71","10733321","104919505","A & W","Restaurant","167 CHURCH ST, Unit-3","43.65444","-79.37596","Pass","2","","2021-12-10","","","",""
"72","10385317","104900514","A & W EXPRESS/COUNTRY STYLE","Food Take Out","20 BLOOR ST E, Flr-8","43.67076","-79.38544","Pass","2","Fail to ensure completion of food handling training by food handler or supervisor - Sec. 32","2021-10-25","NA - Not Applicable","Notice to Comply","",""
"73","10385317","104900514","A & W EXPRESS/COUNTRY STYLE","Food Take Out","20 BLOOR ST E, Flr-8","43.67076","-79.38544","Pass","2","FOOD PREMISE NOT MAINTAINED WITH FOOD HANDLING ROOM IN SANITARY CONDITION - SEC. 7(1)(E) ","2021-10-25","M - Minor","Notice to Comply","",""
"74","10621720","104837916","A & W RESTAURANT","Restaurant","1115 BLOOR ST W, Unit-4","43.65993","-79.43477","Pass","2","","2021-05-12","","","",""
"75","10587126","104801202","A + W","Restaurant","1277 YORK MILLS RD","43.76055","-79.32521","Pass","1","","2021-02-02","","","",""
"76","10738186","104879648","A AND D GROCERY INC","Food Store (Convenience/Variety)","55 OAKMOUNT RD","43.65676","-79.46315","Pass","1","","2021-09-02","","","",""
"77","10729338","104832069","A BETTER WAY RETIREMENT HOME","Retirement Homes(Licensed)","22 PURPLEDUSK TRL","43.78365","-79.20761","Pass","3","","2021-04-27","","","",""
"78","10726605","104817058","A BETTER WAY RETIREMENT HOME CORP.","Retirement Homes(Licensed)","34 MIDDLEPORT CRES","43.81549","-79.21706","Pass","3","Fail to maintain ventilation system to ensure elimination of odours - Sec. 11","2021-03-17","M - Minor","Notice to Comply","",""
"79","10639975","104898319","A LA TURK","Restaurant","3443 YONGE ST","43.73358","-79.40423","Pass","3","Fail to protect against harbouring of pests - Sec. 13(1)","2021-10-20","S - Significant","Notice to Comply","",""
"80","10639975","104898319","A LA TURK","Restaurant","3443 YONGE ST","43.73358","-79.40423","Pass","3","Operate food premise - equipment not arranged to permit cleaning - Sec. 9","2021-10-20","M - Minor","Notice to Comply","",""
"81","10639975","104898319","A LA TURK","Restaurant","3443 YONGE ST","43.73358","-79.40423","Pass","3","Fail to maintain records of pest control measures taken - Sec. 13(2)","2021-10-20","S - Significant","Notice to Comply","",""
"82","10639975","104898319","A LA TURK","Restaurant","3443 YONGE ST","43.73358","-79.40423","Pass","3","Fail to ensure food handler in food premise washes hands as necessary to prevent contamination of food - Sec. 33(1)(e) ","2021-10-20","C - Crucial","Notice to Comply","",""
"83","10639975","104898563","A LA TURK","Restaurant","3443 YONGE ST","43.73358","-79.40423","Pass","3","","2021-11-10","","","",""
"84","10222572","104798599","A SUNSHINE RESTAURANT","Restaurant","796 SHEPPARD AVE E","43.76984","-79.37465","Pass","3","FOOD PREMISE NOT MAINTAINED WITH FOOD HANDLING ROOM IN SANITARY CONDITION - SEC. 7(1)(E) ","2021-01-25","M - Minor","Notice to Comply","",""
"85","10222572","104798599","A SUNSHINE RESTAURANT","Restaurant","796 SHEPPARD AVE E","43.76984","-79.37465","Pass","3","Operate food premise - equipment not arranged to permit cleaning - Sec. 9","2021-01-25","M - Minor","Notice to Comply","",""
"86","10222572","104921194","A SUNSHINE RESTAURANT","Restaurant","796 SHEPPARD AVE E","43.76984","-79.37465","Pass","3","Fail to protect against entry of pests - Sec. 13(1)","2021-12-15","M - Minor","Notice to Comply","",""
"87","10222572","104921194","A SUNSHINE RESTAURANT","Restaurant","796 SHEPPARD AVE E","43.76984","-79.37465","Pass","3","FOOD PREMISE NOT MAINTAINED WITH FOOD HANDLING ROOM IN SANITARY CONDITION - SEC. 7(1)(E) ","2021-12-15","M - Minor","Notice to Comply","",""
"88","10222572","104921194","A SUNSHINE RESTAURANT","Restaurant","796 SHEPPARD AVE E","43.76984","-79.37465","Pass","3","FAIL TO MAINTAIN HANDWASHING STATIONS (LIQUID SOAP AND PAPER TOWELS) - SEC. 7(3)(C)","2021-12-15","S - Significant","Corrected During Inspection","",""
"89","10630748","104859736","A&W","Restaurant","1190 DANFORTH AVE, Bldg-1190","43.68174","-79.33224","Pass","2","","2021-07-09","","","",""
"90","10636301","104799434","A&W","Restaurant","359 BROADVIEW AVE","43.66536","-79.35239","Pass","2","OPERATE FOOD PREMISE -RINSE WATER TEMPERATURE THERMOMETER NOT EASILY READABLE  - SEC.  20(1)(B)","2021-01-26","S - Significant","Corrected During Inspection","",""
"91","10639342","104921311","A&W","Food Court Vendor","900 DUFFERIN ST","43.65602","-79.43523","Pass","2","FOOD PREMISE NOT MAINTAINED WITH CLEAN FLOORS IN FOOD-HANDLING ROOM - SEC. 7(1)(G)  ","2021-12-15","M - Minor","Notice to Comply","",""
"92","10725446","104809927","A&W","Restaurant","875 QUEEN ST E, Unit-106","43.66014","-79.34308","Pass","2","","2021-02-26","","","",""
"93","10727501","104822067","A&W","Restaurant","1010 WILSON AVE, Bldg-A","43.72862","-79.47822","Pass","2","","2021-03-30","","","",""
"94","10740062","104889688","A&W","Restaurant","501 ST CLAIR AVE W, Unit-501A","43.68302","-79.418","Pass","2","","2021-09-29","","","",""
"95","10741973","104900125","A&W","Restaurant","642 CHURCH ST","43.66999","-79.38298","Pass","2","","2021-10-25","","","",""
"96","10743371","104908383","A&W","Restaurant","2004 QUEEN ST E","43.67029","-79.29968","Pass","2","","2021-11-15","","","",""
"97","10722564","104793013","A&W RESTAURANT","Restaurant","2151 ST CLAIR AVE W, Bldg-0","43.6709","-79.4731","Pass","2","","2021-01-08","","","",""
"98","10722564","104892184","A&W RESTAURANT","Restaurant","2151 ST CLAIR AVE W, Bldg-0","43.6709","-79.4731","Pass","2","","2021-10-05","","","",""
"99","9021965","104795736","A-1 SWEET & RESTAURANT","Food Take Out","3300 MCNICOLL AVE, Unit-18","43.82073","-79.26102","Pass","2","FAIL TO ENSURE EQUIPMENT SURFACE SANITIZED AS NECESSARY - SEC. 22","2021-01-15","M - Minor","Notice to Comply","",""
"100","9021965","104914580","A-1 SWEET & RESTAURANT","Food Take Out","3300 MCNICOLL AVE, Unit-18","43.82073","-79.26102","Pass","2","FAIL TO MAINTAIN HANDWASHING STATIONS (LIQUID SOAP AND PAPER TOWELS) - SEC. 7(3)(C)","2021-11-30","S - Significant","Corrected During Inspection","",""
"101","10738378","104880528","A-OK CAFE","Restaurant","25 THE WEST MALL, Unit-1998A","43.61265","-79.55597","Pass","1","OPERATE FOOD PREMISE - MECHANICAL EQUIPMENT NOT MAINTAINED TO PROVIDE SUFFICIENT CHEMICAL SOLUTION RINSE - SEC. 20(1)(A)(II)(B) ","2021-09-07","S - Significant","Corrected During Inspection","",""
"102","9000239","104817939","A.C. RANCH CAFFE","Restaurant","1220 ST CLAIR AVE W","43.67785","-79.44478","Pass","2","FOOD PREMISE NOT MAINTAINED WITH CLEAN FLOORS IN FOOD-HANDLING ROOM - SEC. 7(1)(G)  ","2021-03-19","M - Minor","Notice to Comply","",""
"103","9000239","104817939","A.C. RANCH CAFFE","Restaurant","1220 ST CLAIR AVE W","43.67785","-79.44478","Pass","2","FOOD PREMISE NOT MAINTAINED WITH FOOD HANDLING ROOM IN SANITARY CONDITION - SEC. 7(1)(E) ","2021-03-19","M - Minor","Notice to Comply","",""
"104","10733072","104854304","A1 CASH + CARRY","Food Depot","1168 CALEDONIA RD","43.71594","-79.46797","Pass","1","","2021-06-24","","","",""
"105","10734510","104861531","AANGEN - COWAN KITCHEN","Community Kitchen (Meal Program)","201 COWAN AVE","43.64075","-79.43229","Pass","2","","2021-07-14","","","",""
"106","9000263","104846481","ABBIRAMI CATERING & TAKE-OUT","Food Take Out","2619 EGLINTON AVE E","43.73529","-79.25231","Pass","3","USE UTENSILS NOT IN GOOD REPAIR - SEC. 8(1)(B) ","2021-06-03","S - Significant","Notice to Comply","",""
"107","9000263","104846481","ABBIRAMI CATERING & TAKE-OUT","Food Take Out","2619 EGLINTON AVE E","43.73529","-79.25231","Pass","3","Food premise maintained in manner permitting adverse effect on food - Sec. 7(1)(a)(iii) ","2021-06-03","C - Crucial","Notice to Comply","",""
"108","9000263","104846481","ABBIRAMI CATERING & TAKE-OUT","Food Take Out","2619 EGLINTON AVE E","43.73529","-79.25231","Pass","3","Fail to protect against harbouring of pests - Sec. 13(1)","2021-06-03","S - Significant","Notice to Comply","",""
"109","9000263","104846482","ABBIRAMI CATERING & TAKE-OUT","Food Take Out","2619 EGLINTON AVE E","43.73529","-79.25231","Pass","3","","2021-06-07","","","",""
"110","9000263","104900926","ABBIRAMI CATERING & TAKE-OUT","Food Take Out","2619 EGLINTON AVE E","43.73529","-79.25231","Pass","3","","2021-10-27","","","",""
"111","10409628","104923431","ABC ACADEMY","Child Care - Catered","1432 BAYVIEW AVE","43.70208","-79.37406","Pass","2","","2021-12-21","","","",""
"112","10624262","104917682","ABC Euro Delicatessen","Supermarket","6 LEBOVIC AVE, -#D4","43.7244","-79.29297","Pass","2","FAIL TO ENSURE EQUIPMENT SURFACE SANITIZED AS NECESSARY - SEC. 22","2021-12-08","M - Minor","Notice to Comply","",""
"113","10631383","104897943","ABOGIDA LOUNGE","Restaurant","1393 DANFORTH AVE","43.68229","-79.32765","Pass","3","FAIL TO MAINTAIN HANDWASHING STATIONS (LIQUID SOAP AND PAPER TOWELS) - SEC. 7(3)(C)","2021-10-19","S - Significant","Corrected During Inspection","",""
"114","10324725","104806707","ABSOLUTE BAKERY","Bakery","589 PARLIAMENT ST","43.66755","-79.36916","Pass","3","Fail to protect against harbouring of pests - Sec. 13(1)","2021-02-17","S - Significant","Notice to Comply","",""
"115","10324725","104806707","ABSOLUTE BAKERY","Bakery","589 PARLIAMENT ST","43.66755","-79.36916","Pass","3","Fail to ensure storage pallets designed to protect against contamination - Sec. 31","2021-02-17","C - Crucial","Notice to Comply","",""
"116","10324725","104806707","ABSOLUTE BAKERY","Bakery","589 PARLIAMENT ST","43.66755","-79.36916","Pass","3","FOOD PREMISE NOT MAINTAINED WITH FOOD HANDLING ROOM IN SANITARY CONDITION - SEC. 7(1)(E) ","2021-02-17","M - Minor","Notice to Comply","",""
"117","10324725","104806707","ABSOLUTE BAKERY","Bakery","589 PARLIAMENT ST","43.66755","-79.36916","Pass","3","Operate food premise - equipment not arranged to permit maintenance in sanitary condition - Sec. 9","2021-02-17","M - Minor","Notice to Comply","",""
"118","10324725","104806708","ABSOLUTE BAKERY","Bakery","589 PARLIAMENT ST","43.66755","-79.36916","Pass","3","FOOD PREMISE NOT MAINTAINED WITH CLEAN FLOORS IN FOOD-HANDLING ROOM - SEC. 7(1)(G)  ","2021-02-19","M - Minor","Notice to Comply","",""
"119","9010089","104906197","ABSOLUTELY FAMISHED CATERING","Food Caterer","3974 CHESSWOOD DR","43.75708","-79.47526","Pass","3","Operate food premise - equipment not arranged to permit cleaning - Sec. 9","2021-11-09","M - Minor","Notice to Comply","",""
"120","10564652","104892854","ABYSSINA ETHIOPIAN RESTAURANT","Restaurant","884 DANFORTH AVE","43.68015","-79.33986","Pass","2","FAIL TO MAINTAIN HANDWASHING STATIONS (LIQUID SOAP AND PAPER TOWELS) - SEC. 7(3)(C)","2021-10-06","S - Significant","Corrected During Inspection","",""
"121","10728438","104827066","ABYSSINIA YYZ","Restaurant","2038 YONGE ST","43.7013","-79.39754","Pass","2","Food premise not maintained with walls in good repair in food-handling room - Sec. 7(1)(g)  ","2021-05-27","M - Minor","Notice to Comply","",""
"122","10391330","104904145","ACQUA FINE FOODS","Food Caterer","671 THE QUEENSWAY","43.62704","-79.49903","Pass","3","FOOD PREMISE NOT MAINTAINED WITH FOOD HANDLING ROOM IN SANITARY CONDITION - SEC. 7(1)(E) ","2021-11-04","M - Minor","Notice to Comply","",""
"123","9000306","104818395","ACROSS BOUNDARIES","Serving Kitchen","51 CLARKSON AVE","43.69704","-79.46287","Pass","2","","2021-03-25","","","",""
"124","10634147","104757431","ADAM'S PUB","Restaurant","1760 VICTORIA PARK AVE","43.7366","-79.30792","Pass","3","FOOD PREMISE NOT MAINTAINED WITH FOOD HANDLING ROOM IN SANITARY CONDITION - SEC. 7(1)(E) ","2021-06-04","M - Minor","Notice to Comply","",""
"125","9000316","104879312","ADATH ISRAEL CONGREGATION","Serving Kitchen","37 SOUTHBOURNE AVE, Unit -Bsmt","43.73855","-79.43123","Pass","2","Food premise not maintained with walls in good repair in food-handling room - Sec. 7(1)(g)  ","2021-11-25","M - Minor","Notice to Comply","",""
"126","10614884","104855850","ADATH ISRAEL CONGREGATION - CATERING KITCHEN","Food Caterer","37 SOUTHBOURNE AVE","43.73855","-79.43123","Pass","3","OPERATE FOOD PREMISE - MECHANICAL EQUIPMENT NOT MAINTAINED TO MAINTAIN WASH WATER BETWEEN 60 C AND 71 C - SEC. 20(1)(A)(I) ","2021-09-02","S - Significant","Corrected During Inspection","",""
"127","9052471","104811661","ADELINE'S LODGE","Retirement Homes(Licensed)","379 LAKE PROMENADE","43.58791","-79.53867","Pass","3","","2021-03-03","","","",""
"128","10479160","104877108","ADI BIRYANI & KABOB HOUSE","Restaurant","462 BIRCHMOUNT RD","43.70729","-79.2696","Pass","3","Maintain potentially hazardous foods at internal temperature between 4 C and 60 C -  Sec. 27(1)","2021-08-26","C - Crucial","Notice to Comply","",""
"129","10479160","104877108","ADI BIRYANI & KABOB HOUSE","Restaurant","462 BIRCHMOUNT RD","43.70729","-79.2696","Pass","3","FOOD PREMISE NOT MAINTAINED WITH CLEAN FLOORS IN FOOD-HANDLING ROOM - SEC. 7(1)(G)  ","2021-08-26","M - Minor","Notice to Comply","",""
"130","10479160","104877108","ADI BIRYANI & KABOB HOUSE","Restaurant","462 BIRCHMOUNT RD","43.70729","-79.2696","Pass","3","FAIL TO ENSURE EQUIPMENT SURFACE SANITIZED AS NECESSARY - SEC. 22","2021-08-26","M - Minor","Notice to Comply","",""
"131","10479160","104877108","ADI BIRYANI & KABOB HOUSE","Restaurant","462 BIRCHMOUNT RD","43.70729","-79.2696","Pass","3","USE UTENSILS NOT IN GOOD REPAIR - SEC. 8(1)(B) ","2021-08-26","S - Significant","Notice to Comply","",""
"132","10479160","104877109","ADI BIRYANI & KABOB HOUSE","Restaurant","462 BIRCHMOUNT RD","43.70729","-79.2696","Pass","3","","2021-09-20","","","",""
"133","10729556","104833558","ADOBO FRESH BURRITO MEXICAN GRILL","Restaurant","16 RICHARDSON ST, Unit-3","43.64558","-79.36867","Pass","2","","2021-04-30","","","",""
"134","10497005","104795852","ADONIS","Supermarket","20 ASHTONBEE RD","43.7294","-79.29099","Pass","3","FAIL TO ENSURE EQUIPMENT SURFACE SANITIZED AS NECESSARY - SEC. 22","2021-01-15","M - Minor","Notice to Comply","",""
"135","10497005","104795852","ADONIS","Supermarket","20 ASHTONBEE RD","43.7294","-79.29099","Pass","3","USE UTENSILS NOT IN GOOD REPAIR - SEC. 8(1)(B) ","2021-01-15","S - Significant","Corrected During Inspection","",""
"136","10497005","104903892","ADONIS","Supermarket","20 ASHTONBEE RD","43.7294","-79.29099","Pass","3","FAIL TO ENSURE EQUIPMENT SURFACE SANITIZED AS NECESSARY - SEC. 22","2021-11-03","M - Minor","Notice to Comply","",""
"137","10497005","104903892","ADONIS","Supermarket","20 ASHTONBEE RD","43.7294","-79.29099","Pass","3","USE FOOD EQUIPMENT NOT OF SOUND AND TIGHT CONSTRUCTION - SEC. 8(1)(A) ","2021-11-03","S - Significant","Corrected During Inspection","",""
"138","10433028","104917454","ADRIANO'S PIZZA & PASTA","Food Take Out","3329 LAKE SHORE BLVD W","43.59621","-79.5251","Pass","2","","2021-12-06","","","",""
"139","10559961","104855328","ADVANTAGE HEALTH MATTERS INC.","Restaurant","5787 STEELES AVE W","43.76584","-79.56754","Pass","2","","2021-06-28","","","",""
"140","10626431","104816416","ADVENT FORESTVIEW RETIREMENT RESIDENCE","Retirement Homes(Licensed)","537 FINCH AVE W","43.77012","-79.44538","Pass","3","FAIL TO ENSURE EQUIPMENT SURFACE SANITIZED AS NECESSARY - SEC. 22","2021-03-16","M - Minor","Notice to Comply","",""
"141","10626431","104816416","ADVENT FORESTVIEW RETIREMENT RESIDENCE","Retirement Homes(Licensed)","537 FINCH AVE W","43.77012","-79.44538","Pass","3","Operate food premise - equipment not constructed to permit cleaning - Sec. 9","2021-03-16","M - Minor","Notice to Comply","",""
"142","10466432","104916718","AFGHAN CUISINE","Restaurant","66 OVERLEA BLVD","43.70806","-79.34298","Pass","3","","2021-12-03","","","",""
"143","10685333","104850975","AFGHAN KEBOB CUISINE","Restaurant","2298 ISLINGTON AVE, Bldg-0","43.71533","-79.55585","Pass","2","","2021-06-15","","","",""
"144","10659503","104861012","AFGHAN SUPERMARKET","Supermarket","549 MARKHAM RD","43.758","-79.22447","Pass","2","FAIL TO ENSURE EQUIPMENT SURFACE SANITIZED AS NECESSARY - SEC. 22","2021-07-13","M - Minor","Notice to Comply","",""
"145","10659503","104861012","AFGHAN SUPERMARKET","Supermarket","549 MARKHAM RD","43.758","-79.22447","Pass","2","FOOD PREMISE NOT MAINTAINED WITH FOOD HANDLING ROOM IN SANITARY CONDITION - SEC. 7(1)(E) ","2021-07-13","M - Minor","Notice to Comply","",""
"146","10659503","104861012","AFGHAN SUPERMARKET","Supermarket","549 MARKHAM RD","43.758","-79.22447","Pass","2","Fail to ensure storage racks designed to protect against contamination - Sec. 31","2021-07-13","C - Crucial","Notice to Comply","",""
"147","10659503","104861016","AFGHAN SUPERMARKET","Supermarket","549 MARKHAM RD","43.758","-79.22447","Pass","2","","2021-07-14","","","",""
"148","10600920","104890657","AFRICAN KING MEAT SHOP","Supermarket","2223 JANE ST","43.72423","-79.5091","Pass","3","Fail to protect against entry of pests - Sec. 13(1)","2021-10-01","M - Minor","Notice to Comply","",""
"149","10600920","104890657","AFRICAN KING MEAT SHOP","Supermarket","2223 JANE ST","43.72423","-79.5091","Pass","3","FAIL TO REMOVE WASTES WHEN NECESSARY TO MAINTAIN SANITARY CONDITION - SEC. 12","2021-10-01","S - Significant","Corrected During Inspection","",""
"150","10503128","104905730","AFRO CARIBBEAN FOODS","Supermarket","2121 JANE ST","43.71936","-79.50795","Pass","2","FOOD PREMISE NOT MAINTAINED WITH FOOD HANDLING ROOM IN SANITARY CONDITION - SEC. 7(1)(E) ","2021-11-08","M - Minor","Notice to Comply","",""
"151","10503128","104905730","AFRO CARIBBEAN FOODS","Supermarket","2121 JANE ST","43.71936","-79.50795","Pass","2","USE UTENSILS NOT OF SOUND AND TIGHT CONSTRUCTION - SEC. 8(1)(A) ","2021-11-08","S - Significant","Corrected During Inspection","",""
"152","10663430","104906404","AFRO CONTINENTAL RESTAURANT","Restaurant","849 ALBION RD","43.73451","-79.5601","Pass","2","","2021-11-09","","","",""
"153","10400622","104873618","AGAINST THE GRAIN URBAN TAVERN","Restaurant","125 QUEENS QUAY E","43.64379","-79.36939","Pass","2","USE EQUIPMENT NOT SUITABLE FOR INTENDED PURPOSE - SEC. 8(1)(D)  ","2021-08-18","S - Significant","Corrected During Inspection","",""
"154","10622621","104840272","AGENDA CAFE","Restaurant","622 COLLEGE ST","43.65502","-79.4149","Pass","2","OPERATE FOOD PREMISE -RINSE WATER TEMPERATURE THERMOMETER NOT EASILY READABLE  - SEC.  20(1)(B)","2021-05-17","S - Significant","Corrected During Inspection","",""
"155","10622621","104840272","AGENDA CAFE","Restaurant","622 COLLEGE ST","43.65502","-79.4149","Pass","2","FAIL TO PROVIDE THERMOMETER IN REFRIGERATION EQUIPMENT - SEC. 30(B)    ","2021-05-17","S - Significant","Corrected During Inspection","",""
"156","9000353","104886737","AGINCOURT TEMPLE CHILD CARE CENTRE","Child Care - Food Preparation","3080 BIRCHMOUNT RD","43.80345","-79.30939","Pass","2","","2021-09-22","","","",""
"157","10594195","104890782","AGORA","Food Take Out","921 QUEEN ST W","43.64523","-79.41263","Pass","3","","2021-10-04","","","",""
"158","10744402","104914654","AGUA NA BOCA","Commissary","127 MANVILLE RD, Unit-1 B","43.72642","-79.28287","Pass","2","","2021-11-29","","","",""
"159","10713025","104841893","AH SO SUSHI","Food Take Out","2125 LAKE SHORE BLVD W","43.62695","-79.47888","Pass","2","","2021-02-19","","","",""
"160","10566811","104913517","AH-SO SUSHI","Food Take Out","24 WELLESLEY ST W","43.66485","-79.38611","Pass","2","","2021-11-26","","","",""
"161","10625768","104821482","AH-SO SUSHI","Food Take Out","841 BROWNS LINE","43.61035","-79.54749","Pass","2","","2021-03-29","","","",""
"162","10661450","104910201","AH-SO SUSHI","Restaurant","1005 LAKE SHORE BLVD E","43.65767","-79.32973","Pass","2","","2021-11-18","","","",""
"163","10725292","104808976","AH-SO SUSHI","Food Take Out","2149 YONGE ST, Flr-2","43.70413","-79.39754","Pass","2","","2021-02-24","","","",""
"164","10725292","104915435","AH-SO SUSHI","Food Take Out","2149 YONGE ST, Flr-2","43.70413","-79.39754","Pass","2","","2021-11-30","","","",""
"165","9000381","104827231","AIR-O-DOWN CHILDCARE CENTRE","Child Care - Catered","7 HAWKSDALE RD","43.7304","-79.47966","Pass","2","","2021-04-15","","","",""
"166","10363766","104821462","AJISEN RAMEN","Restaurant","332 SPADINA AVE","43.6539","-79.39852","Pass","3","FAIL TO ENSURE EQUIPMENT SURFACE SANITIZED AS NECESSARY - SEC. 22","2021-03-29","M - Minor","Notice to Comply","",""
"167","10363766","104821462","AJISEN RAMEN","Restaurant","332 SPADINA AVE","43.6539","-79.39852","Pass","3","USE FOOD EQUIPMENT NOT OF READILY CLEANABLE FORM - SEC.  8(1)(C)  ","2021-03-29","S - Significant","Corrected During Inspection","",""
"168","10363766","104821462","AJISEN RAMEN","Restaurant","332 SPADINA AVE","43.6539","-79.39852","Pass","3","FAIL TO PROVIDE THERMOMETER IN REFRIGERATION EQUIPMENT - SEC. 30(B)    ","2021-03-29","S - Significant","Corrected During Inspection","",""
"169","10722592","104793199","AJISEN RAMEN","Restaurant","3720 MIDLAND AVE, Unit-115","43.8157","-79.29337","Pass","2","","2021-01-08","","","",""
"170","10722990","104795586","AJISEN RAMEN","Food Processing Plant","130 DYNAMIC DR, Unit-5","43.82712","-79.25331","Pass","2","","2021-01-15","","","",""
"171","10555351","104901530","AKA-ONI JAPANESE CUISINE","Restaurant","633 SILVER STAR BLVD","43.82188","-79.29921","Pass","2","FOOD PREMISE NOT MAINTAINED WITH FOOD HANDLING ROOM IN SANITARY CONDITION - SEC. 7(1)(E) ","2021-10-28","M - Minor","Notice to Comply","",""
"172","9419710","104877818","AKIVA'S FRUIT & DELI","Food Take Out","6243 BATHURST ST","43.79099","-79.44515","Pass","2","","2021-08-30","","","",""
"173","10729045","104830497","AKROPOLIS PASTRIES","Restaurant","708 DANFORTH AVE","43.67949","-79.34349","Pass","2","FAIL TO MAINTAIN HANDWASHING STATIONS (LIQUID SOAP AND PAPER TOWELS) - SEC. 7(3)(C)","2021-04-22","S - Significant","Corrected During Inspection","",""
"174","9000487","104834677","AL KARAM SWEETS","Food Processing Plant","3001 MARKHAM RD, Unit-15","43.8286","-79.24913","Pass","2","","2021-05-04","","","",""
"175","10626094","104848264","AL MEEZAN GROCERY & TAKE OUT","Food Take Out","1144 ALBION RD","43.73783","-79.56708","Pass","2","","2021-06-08","","","",""
"176","10628775","104893089","AL MEEZAN HALAL MEAT & GROCER","Butcher Shop","1146 ALBION RD","43.73785","-79.56717","Pass","2","Fail to ensure equipment surface cleaned as necessary - Sec. 22","2021-10-06","S - Significant","Notice to Comply","",""
"177","10628775","104893089","AL MEEZAN HALAL MEAT & GROCER","Butcher Shop","1146 ALBION RD","43.73785","-79.56717","Pass","2","FOOD PREMISE NOT MAINTAINED WITH CLEAN FLOORS IN FOOD-HANDLING ROOM - SEC. 7(1)(G)  ","2021-10-06","M - Minor","Notice to Comply","",""
"178","10628775","104893089","AL MEEZAN HALAL MEAT & GROCER","Butcher Shop","1146 ALBION RD","43.73785","-79.56717","Pass","2","OPERATE FOOD PREMISE - FAIL TO KEEP SANITARY FACILITY SANITARY - SEC. 25(2)","2021-10-06","S - Significant","Notice to Comply","",""
"179","10628775","104893191","AL MEEZAN HALAL MEAT & GROCER","Butcher Shop","1146 ALBION RD","43.73785","-79.56717","Pass","2","","2021-10-08","","","",""
"180","9089913","104818741","AL WALAA HALAL MEAT & GROCERY","Butcher Shop","1728 LAWRENCE AVE E","43.74265","-79.30875","Pass","2","Operate food premise - furniture not arranged to permit cleaning - Sec. 9","2021-03-22","M - Minor","Notice to Comply","",""
"181","10679987","104832321","AL- QUERESHI FOOD MEATS","Butcher Shop","2183 LAWRENCE AVE E","43.74736","-79.28351","Pass","1","","2021-04-27","","","",""
"182","10384879","104919528","AL-ARUBA RESTAURANT","Restaurant","377 ALBION RD","43.72544","-79.55153","Pass","2","FOOD PREMISE NOT MAINTAINED WITH CLEAN FLOORS IN FOOD-HANDLING ROOM - SEC. 7(1)(G)  ","2021-12-10","M - Minor","Notice to Comply","",""
"183","9000253","104821016","AL-BARAK VARIETY STORE","Food Store (Convenience/Variety)","1880 WESTON RD","43.69976","-79.51578","Pass","2","FAIL TO MAINTAIN HANDWASHING STATIONS (LIQUID SOAP AND PAPER TOWELS) - SEC. 7(3)(C)","2021-03-29","S - Significant","Corrected During Inspection","",""
"184","10639128","104806341","AL-DEEWAN HALAL BAKERY & PIZZA","Food Take Out","1415 KENNEDY RD, Unit-9","43.76486","-79.28014","Pass","2","","2021-02-16","","","",""
"185","9386681","104839373","AL-MADINA HALAL PIZZA & BAKERY","Food Take Out","2683 LAWRENCE AVE E","43.7517","-79.26149","Pass","2","","2021-05-14","","","",""
"186","10682301","104853027","AL-MANI GRILL AND BIRYANI","Restaurant","2658 DANFORTH AVE","43.6889","-79.2995","Pass","3","","2021-06-21","","","",""
"187","10432129","104791553","AL-MEEZAN SPICY GRILL LTD.","Restaurant","670 REXDALE BLVD","43.72076","-79.61329","Pass","2","FOOD PREMISE NOT MAINTAINED TO KEEP FOOD-HANDLING ROOM FREE FROM EQUIPMENT NOT REGULARLY USED - SEC. 7(1)(F)   ","2021-01-04","M - Minor","Notice to Comply","",""
"188","10671251","104911205","AL-MINA HALAL MEAT & GROCERY","Butcher Shop","25 OVERLEA BLVD, Unit-6","43.70436","-79.34982","Pass","3","FOOD PREMISE NOT MAINTAINED WITH FOOD HANDLING ROOM IN SANITARY CONDITION - SEC. 7(1)(E) ","2021-11-22","M - Minor","Notice to Comply","",""
"189","10354263","104803001","AL-MUMTAZ SUPER MARKET & FARM","Supermarket","10 TOWER DR","43.74508","-79.29897","Pass","2","FOOD PREMISE NOT MAINTAINED WITH FOOD HANDLING ROOM IN SANITARY CONDITION - SEC. 7(1)(E) ","2021-02-05","M - Minor","Notice to Comply","",""
"190","10354263","104803001","AL-MUMTAZ SUPER MARKET & FARM","Supermarket","10 TOWER DR","43.74508","-79.29897","Pass","2","Fail to sanitize multi-service articles after use - Sec. 21(1)","2021-02-05","S - Significant","Notice to Comply","",""
"191","10354263","104803001","AL-MUMTAZ SUPER MARKET & FARM","Supermarket","10 TOWER DR","43.74508","-79.29897","Pass","2","Fail to protect food from contamination or adulteration - Sec. 26(1) ","2021-02-05","C - Crucial","Notice to Comply","",""
"192","10354263","104803014","AL-MUMTAZ SUPER MARKET & FARM","Supermarket","10 TOWER DR","43.74508","-79.29897","Pass","2","","2021-02-17","","","",""
"193","10398343","104901086","ALBERT'S REAL JAMAICAN FOODS","Restaurant","542 ST CLAIR AVE W","43.68294","-79.42077","Pass","3","Operate food premise - equipment not constructed to permit cleaning - Sec. 9","2021-10-27","M - Minor","Notice to Comply","",""
"194","10398343","104901086","ALBERT'S REAL JAMAICAN FOODS","Restaurant","542 ST CLAIR AVE W","43.68294","-79.42077","Pass","3","FOOD PREMISE NOT MAINTAINED WITH CLEAN FLOORS IN FOOD-HANDLING ROOM - SEC. 7(1)(G)  ","2021-10-27","M - Minor","Notice to Comply","",""
"195","9000431","104832619","ALBION CHILD CARE CENTRE","Child Care - Food Preparation","1545 ALBION RD","43.74025","-79.58643","Pass","2","","2021-04-28","","","",""
"196","10467346","104819375","ALCHEMY PICKLE COMPANY","Food Processing Plant","1 WILTSHIRE AVE, Unit-127","43.6675","-79.44976","Pass","2","","2021-03-23","","","",""
"197","10730722","104841541","ALEBRIJES","Restaurant","2404 DUFFERIN ST, Bldg--","43.69688","-79.45128","Pass","3","","2021-05-20","","","",""
"198","10730722","104867374","ALEBRIJES","Restaurant","2404 DUFFERIN ST, Bldg--","43.69688","-79.45128","Pass","3","","2021-08-03","","","",""
"199","10670391","104809056","ALEEZA'S  PIZZA","Food Take Out","1768 WESTON RD","43.69846","-79.51223","Pass","2","","2021-02-24","","","",""
"200","10664725","104797313","ALEPPO KEBAB","Restaurant","1960 LAWRENCE AVE E, Unit-11","43.74496","-79.29824","Pass","2","FOOD PREMISE NOT MAINTAINED WITH FOOD HANDLING ROOM IN SANITARY CONDITION - SEC. 7(1)(E) ","2021-01-20","M - Minor","Notice to Comply","",""
"201","10664725","104902789","ALEPPO KEBAB","Restaurant","1960 LAWRENCE AVE E, Unit-11","43.74496","-79.29824","Pass","2","FAIL TO ENSURE EQUIPMENT SURFACE SANITIZED AS NECESSARY - SEC. 22","2021-11-01","M - Minor","Notice to Comply","",""
"202","10220411","104907264","ALEX FARM PRODUCTS","Food Take Out","270 THE KINGSWAY, Unit-1","43.66271","-79.51955","Pass","1","","2021-11-12","","","",""
"203","9059798","104842738","ALEXANDROS TAKE OUT","Restaurant","484 DANFORTH AVE, Unit-1","43.6783","-79.34931","Pass","2","FAIL TO PROVIDE THERMOMETER IN REFRIGERATION EQUIPMENT - SEC. 30(B)    ","2021-05-25","S - Significant","Corrected During Inspection","",""
"204","10228529","104878808","ALEXANDROS TAKE OUT","Food Take Out","5 QUEENS QUAY W","43.64146","-79.37521","Pass","3","FOOD PREMISE NOT MAINTAINED WITH FOOD HANDLING ROOM IN SANITARY CONDITION - SEC. 7(1)(E) ","2021-08-31","M - Minor","Notice to Comply","",""
"205","9061130","104813907","ALEXIS LODGES","Institutional Food Services","707 ELLESMERE RD","43.76393","-79.28909","Pass","3","","2021-03-09","","","",""
"206","10356090","104847740","ALI BABA","Restaurant","2202 DUNDAS ST W","43.65372","-79.45136","Pass","3","","2021-06-07","","","",""
"207","10541617","104806630","ALI BABA","Restaurant","890 BLOOR ST W","43.66223","-79.42558","Pass","2","FAIL TO ENSURE EQUIPMENT SURFACE SANITIZED AS NECESSARY - SEC. 22","2021-02-17","M - Minor","Notice to Comply","",""
"208","10541617","104897668","ALI BABA","Restaurant","890 BLOOR ST W","43.66223","-79.42558","Pass","2","","2021-10-19","","","",""
"209","10724432","104803881","ALI BABA 'S","Restaurant","2549 YONGE ST","43.71331","-79.39947","Pass","2","FOOD PREMISE NOT MAINTAINED WITH CLEAN FLOORS IN FOOD-HANDLING ROOM - SEC. 7(1)(G)  ","2021-02-08","M - Minor","Notice to Comply","",""
"210","10724432","104803881","ALI BABA 'S","Restaurant","2549 YONGE ST","43.71331","-79.39947","Pass","2","FOOD PREMISE NOT MAINTAINED TO KEEP FOOD-HANDLING ROOM FREE FROM MATERIALS NOT REGULARLY USED - SEC. 7(1)(F) ","2021-02-08","M - Minor","Notice to Comply","",""
"211","10725131","104807987","ALI BABA FARMS","Butcher Shop","1361 WILSON AVE, Bldg--","43.72287","-79.49769","Pass","2","","2021-02-22","","","",""
"212","10396646","104837355","ALI BABA'S","Restaurant","117 DANFORTH AVE","43.67621","-79.35791","Pass","3","FOOD PREMISE NOT MAINTAINED WITH CLEAN FLOORS IN FOOD-HANDLING ROOM - SEC. 7(1)(G)  ","2021-05-11","M - Minor","Notice to Comply","",""
"213","10446530","104887618","ALI BABA'S","Food Take Out","229 REXDALE BLVD","43.71238","-79.57628","Pass","2","","2021-09-24","","","",""
"214","10583566","104813398","ALI BABA'S","Restaurant","197 DUNDAS ST W","43.65484","-79.38723","Pass","2","FOOD PREMISE NOT MAINTAINED WITH FOOD HANDLING ROOM IN SANITARY CONDITION - SEC. 7(1)(E) ","2021-03-08","M - Minor","Notice to Comply","",""
"215","10583566","104840463","ALI BABA'S","Restaurant","197 DUNDAS ST W","43.65484","-79.38723","Pass","2","","2021-05-17","","","",""
"216","10719993","104779014","ALI BABA'S","Restaurant","729 BLOOR ST W","43.66338","-79.41846","Pass","3","Fail to Ensure the Presence of the Holder of a Valid Food Handlers Certificate - Sec. 545- 157E(1 7)(a)","2021-03-25","NA - Not Applicable","Notice to Comply","",""
"217","10719993","104896470","ALI BABA'S","Restaurant","729 BLOOR ST W","43.66338","-79.41846","Pass","3","SANITIZE UTENSILS USING AGENT FOR WHICH TEST REAGENT NOT READILY AVAILABLE - SEC. 19(E)(III) ","2021-10-15","S - Significant","Corrected During Inspection","",""
"218","10719993","104896470","ALI BABA'S","Restaurant","729 BLOOR ST W","43.66338","-79.41846","Pass","3","FAIL TO PROVIDE THERMOMETER IN REFRIGERATION EQUIPMENT - SEC. 30(B)    ","2021-10-15","S - Significant","Corrected During Inspection","",""
"219","10719993","104896470","ALI BABA'S","Restaurant","729 BLOOR ST W","43.66338","-79.41846","Pass","3","FAIL TO MAINTAIN HANDWASHING STATIONS (LIQUID SOAP AND PAPER TOWELS) - SEC. 7(3)(C)","2021-10-15","S - Significant","Corrected During Inspection","",""
"220","10719993","104896470","ALI BABA'S","Restaurant","729 BLOOR ST W","43.66338","-79.41846","Pass","3","Fail to Ensure the Presence of the Holder of a Valid Food Handlers Certificate - Sec. 545- 157E(1 7)(a)","2021-10-15","NA - Not Applicable","Notice to Comply","",""
"221","9383766","104807855","ALI BABA'S MIDDLE EASTERN CUISINE","Restaurant","1430 QUEEN ST W","43.64087","-79.4353","Pass","3","Fail to maintain ventilation system to ensure elimination of odours - Sec. 11","2021-02-22","M - Minor","Notice to Comply","",""
"222","9383766","104807855","ALI BABA'S MIDDLE EASTERN CUISINE","Restaurant","1430 QUEEN ST W","43.64087","-79.4353","Pass","3","SANITIZE UTENSILS USING AGENT FOR WHICH TEST REAGENT NOT READILY AVAILABLE - SEC. 19(E)(III) ","2021-02-22","S - Significant","Corrected During Inspection","",""
"223","9383766","104807855","ALI BABA'S MIDDLE EASTERN CUISINE","Restaurant","1430 QUEEN ST W","43.64087","-79.4353","Pass","3","FAIL TO MAINTAIN HANDWASHING STATIONS (LIQUID SOAP AND PAPER TOWELS) - SEC. 7(3)(C)","2021-02-22","S - Significant","Corrected During Inspection","",""
"224","10348759","104809002","ALI BABA'S MIDDLE EASTERN CUISINE","Restaurant","1878 WESTON RD","43.69976","-79.51578","Pass","2","","2021-03-01","","","",""
"225","9021137","104900282","ALI'S MARKET","Butcher Shop","3040 DON MILLS RD, Unit-25a","43.78613","-79.35192","Pass","1","SANITIZE UTENSILS IN CHLORINE SOLUTION OF LESS THAN 100 P.P.M. OF AVAILABLE CHLORINE - SEC. 19(B) ","2021-10-26","S - Significant","Corrected During Inspection","",""
"226","9021137","104900282","ALI'S MARKET","Butcher Shop","3040 DON MILLS RD, Unit-25a","43.78613","-79.35192","Pass","1","Fail to ensure completion of food handling training by food handler or supervisor - Sec. 32","2021-10-26","NA - Not Applicable","Notice to Comply","",""
"227","10655915","104809952","ALI'S NO FRILLS","Supermarket","1880 EGLINTON AVE E, Bldg-1","43.72553","-79.29949","Pass","2","","2021-02-26","","","",""
"228","10675254","104811779","ALI'S NO FRILLS","Supermarket","449 PARLIAMENT ST","43.66326","-79.36754","Pass","2","","2021-03-03","","","",""
"229","9000485","104879223","ALI'S WEST INDIAN ROTI SHOP","Restaurant","1446 QUEEN ST W","43.64073","-79.43591","Pass","3","","2021-09-01","","","",""
"230","10204321","104870282","ALL ABOUT KIDS","Child Care - Food Preparation","2005 SHEPPARD AVE E, Unit-115","43.77433","-79.33838","Pass","3","","2021-08-18","","","",""
"231","10490404","104893247","ALLAN'S PASTRY SHOP","Bakery","3064 DON MILLS RD E","43.78622","-79.35208","Pass","2","Fail to ensure presence of food handler or supervisor during all hours of operation - Sec. 32","2021-10-07","NA - Not Applicable","Notice to Comply","",""
"232","9388068","104858684","ALLEN'S","Restaurant","143 DANFORTH AVE","43.67632","-79.3573","Pass","2","","2021-07-07","","","",""
"233","9388068","104920611","ALLEN'S","Restaurant","143 DANFORTH AVE","43.67632","-79.3573","Pass","2","","2021-12-13","","","",""
"234","10585299","104868255","ALLWYN'S","Food Take Out","4750 YONGE ST, Unit-135","43.76048","-79.41103","Pass","2","","2021-08-04","","","",""
"235","10507759","104893346","ALLWYN'S BAKERY","Bakery","81 UNDERHILL DR","43.74547","-79.3256","Pass","2","","2021-10-07","","","",""
"236","10641983","104643792","ALMA","Restaurant","1194 BLOOR ST W","43.65954","-79.43806","Pass","2","Operate food premise - equipment not constructed to permit maintenance in sanitary condition - Sec. 9","2021-09-02","M - Minor","Notice to Comply","",""
"237","10668075","104843800","ALMOND BUTTERFLY BAKERY INC.","Food Take Out","792 DUNDAS ST W","43.65214","-79.4082","Pass","2","FOOD PREMISE NOT MAINTAINED WITH FOOD HANDLING ROOM IN SANITARY CONDITION - SEC. 7(1)(E) ","2021-05-27","M - Minor","Notice to Comply","",""
"238","10539891","104882588","ALO RESTAURANT","Restaurant","441 QUEEN ST W","43.64879","-79.39611","Pass","2","","2021-09-13","","","",""
"239","10539891","104895833","ALO RESTAURANT","Restaurant","441 QUEEN ST W","43.64879","-79.39611","Pass","2","","2021-10-14","","","",""
"240","10732188","104849733","ALOETTE LIBERTY","Food Take Out","171 EAST LIBERTY ST, Unit-127A","43.63829","-79.41948","Pass","2","","2021-06-11","","","",""
"241","10609108","104883060","ALOETTE RESTAURANT","Restaurant","163 SPADINA AVE","43.64851","-79.39588","Pass","2","","2021-09-13","","","",""
"242","10698284","104919021","ALPHA KATERING","Food Caterer","51 ST REGIS CRES","43.75488","-79.48623","Pass","3","Fail to maintain ventilation system to ensure elimination of odours - Sec. 11","2021-12-09","M - Minor","Notice to Comply","",""
"243","9006227","104868686","ALPHA OMEGA HOUSE","Boarding / Lodging Home - Kitchen","127 DUNN AVE","43.63575","-79.43192","Pass","3","","2021-08-05","","","",""
"244","10186202","104852415","ALPHABET KIDS","Food Caterer","73 RAILSIDE RD, Unit-1","43.73662","-79.32283","Pass","3","","2021-06-29","","","",""
"245","10731214","104844059","ALPHABET STATION CHILDCARE","Child Care - Catered","2206 QUEEN ST E","43.67256","-79.28942","Pass","2","","2021-05-25","","","",""
"246","10638477","104824303","ALTAMONT CARE COMMUNITY","Nursing Home / Home for the Aged","92 ISLAND RD","43.79886","-79.14003","Pass","3","","2021-04-07","","","",""
"247","10388620","104855910","ALTONA KABOB","Food Take Out","6099 YONGE ST","43.79125","-79.41782","Pass","3","Fail to protect against entry of pests - Sec. 13(1)","2021-06-29","M - Minor","Notice to Comply","",""
"248","10388620","104855910","ALTONA KABOB","Food Take Out","6099 YONGE ST","43.79125","-79.41782","Pass","3","FAIL TO PROVIDE THERMOMETER IN REFRIGERATION EQUIPMENT - SEC. 30(B)    ","2021-06-29","S - Significant","Corrected During Inspection","",""
"249","10388620","104855910","ALTONA KABOB","Food Take Out","6099 YONGE ST","43.79125","-79.41782","Pass","3","FAIL TO ENSURE EQUIPMENT SURFACE SANITIZED AS NECESSARY - SEC. 22","2021-06-29","M - Minor","Notice to Comply","",""
"250","10388620","104886903","ALTONA KABOB","Food Take Out","6099 YONGE ST","43.79125","-79.41782","Pass","3","Fail to protect against entry of pests - Sec. 13(1)","2021-09-23","M - Minor","Notice to Comply","",""
"251","10388620","104906205","ALTONA KABOB","Food Take Out","6099 YONGE ST","43.79125","-79.41782","Pass","3","FOOD PREMISE NOT MAINTAINED WITH FOOD HANDLING ROOM IN SANITARY CONDITION - SEC. 7(1)(E) ","2021-11-09","M - Minor","Notice to Comply","",""
"252","10545535","104915121","ALWAYS FRESH RESTAURANT","Restaurant","620 VAUGHAN RD","43.69206","-79.44026","Pass","3","Fail to maintain ventilation system to ensure elimination of fumes - Sec. 11","2021-11-30","M - Minor","Notice to Comply","",""
"253","10545535","104915121","ALWAYS FRESH RESTAURANT","Restaurant","620 VAUGHAN RD","43.69206","-79.44026","Pass","3","FOOD PREMISE NOT MAINTAINED WITH FOOD HANDLING ROOM IN SANITARY CONDITION - SEC. 7(1)(E) ","2021-11-30","M - Minor","Notice to Comply","",""
"254","10382602","104863981","AMAL","Restaurant","131 BLOOR ST W","43.66876","-79.3924","Pass","2","SANITIZE UTENSILS IN CHLORINE SOLUTION OF LESS THAN 100 P.P.M. OF AVAILABLE CHLORINE - SEC. 19(B) ","2021-07-21","S - Significant","Corrected During Inspection","",""
"255","10613146","104912550","AMANO ITALIAN KITCHEN","Restaurant","65 FRONT ST W, Unit-374","43.64528","-79.38049","Pass","2","FOOD PREMISE NOT MAINTAINED WITH FOOD HANDLING ROOM IN SANITARY CONDITION - SEC. 7(1)(E) ","2021-11-24","M - Minor","Notice to Comply","",""
"256","10664378","104792379","AMAYA EXPRESS YORK","Restaurant","95 THE POND RD, Unit-20","43.76991","-79.50187","Pass","2","FOOD PREMISE NOT MAINTAINED WITH CLEAN FLOORS IN FOOD-HANDLING ROOM - SEC. 7(1)(G)  ","2021-01-06","M - Minor","Notice to Comply","",""
"257","10730502","104840191","AMAZING GRACE AFRICAN & CARIBBEAN SUPERSTORE","Food Store (Convenience/Variety)","1290 FINCH AVE W, Unit-17","43.76533","-79.48953","Pass","1","","2021-05-17","","","",""
"258","10677808","104847836","AMAZING HAKKA","Restaurant","1734 LAWRENCE AVE E","43.74268","-79.30859","Pass","3","FAIL TO ENSURE EQUIPMENT SURFACE SANITIZED AS NECESSARY - SEC. 22","2021-06-08","M - Minor","Notice to Comply","",""
"259","10661417","104878530","AMBROSIA","Supermarket","1725 AVENUE RD","43.72874","-79.41787","Pass","1","","2021-08-31","","","",""
"260","10586042","104856355","AMENECER SALVADORENO RESTAURANT","Restaurant","2663 ISLINGTON AVE","43.73888","-79.56556","Pass","2","","2021-06-30","","","",""
"261","10185216","104812437","AMICA AT BAYVIEW","Retirement Homes(Licensed)","15 BARBERRY PL","43.76641","-79.38404","Pass","3","","2021-03-05","","","",""
"262","10612622","104813510","AMICA BAYVIEW GARDENS","Retirement Homes(Licensed)","19 REAN DR","43.76723","-79.3824","Pass","3","","2021-03-09","","","",""
"263","10460758","104813218","AMICA ON THE AVENUE","Retirement Homes(Licensed)","1066 AVENUE RD","43.70578","-79.41014","Pass","3","","2021-03-08","","","",""
"264","10518054","104796637","AMICO CHEF","Bakery","2889 DUFFERIN ST","43.70811","-79.4531","Pass","3","FOOD PREMISE NOT MAINTAINED WITH CLEAN FLOORS IN FOOD-HANDLING ROOM - SEC. 7(1)(G)  ","2021-01-19","M - Minor","Notice to Comply","",""
"265","10518054","104796637","AMICO CHEF","Bakery","2889 DUFFERIN ST","43.70811","-79.4531","Pass","3","FAIL TO PROVIDE THERMOMETER IN REFRIGERATION EQUIPMENT - SEC. 30(B)    ","2021-01-19","S - Significant","Corrected During Inspection","",""
"266","10518054","104796637","AMICO CHEF","Bakery","2889 DUFFERIN ST","43.70811","-79.4531","Pass","3","FAIL TO MAINTAIN HANDWASHING STATIONS (LIQUID SOAP AND PAPER TOWELS) - SEC. 7(3)(C)","2021-01-19","S - Significant","Corrected During Inspection","",""
"267","10518054","104796637","AMICO CHEF","Bakery","2889 DUFFERIN ST","43.70811","-79.4531","Pass","3","Operate food premise - fail to keep sanitary facility in good repair - Sec. 25(2)","2021-01-19","M - Minor","Notice to Comply","",""
"268","10518054","104796637","AMICO CHEF","Bakery","2889 DUFFERIN ST","43.70811","-79.4531","Pass","3","Fail to Ensure the Presence of the Holder of a Valid Food Handlers Certificate - Sec. 545- 157E(1 7)(a)","2021-01-19","NA - Not Applicable","Notice to Comply","",""
"269","10518054","104796637","AMICO CHEF","Bakery","2889 DUFFERIN ST","43.70811","-79.4531","Pass","3","OPERATE FOOD PREMISE - FAIL TO EQUIP SANITARY FACILITY WITH SOAP OR DETERGENT - SEC. 24(3)(D)  ","2021-01-19","S - Significant","Corrected During Inspection","",""
"270","10299529","104843820","AMIGOS BAR & GRILL","Restaurant","6089 KINGSTON RD","43.78373","-79.16895","Pass","2","","2021-05-27","","","",""
"271","10632635","104873948","AMIGOS LATIN FLAVOUR","Food Take Out","1291 WILSON AVE","43.72376","-79.49387","Pass","2","FAIL TO ENSURE EQUIPMENT SURFACE SANITIZED AS NECESSARY - SEC. 22","2021-08-19","M - Minor","Notice to Comply","",""
"272","10632635","104873948","AMIGOS LATIN FLAVOUR","Food Take Out","1291 WILSON AVE","43.72376","-79.49387","Pass","2","FOOD PREMISE NOT MAINTAINED WITH FOOD HANDLING ROOM IN SANITARY CONDITION - SEC. 7(1)(E) ","2021-08-19","M - Minor","Notice to Comply","",""
"273","10625248","104871401","AMIN FOOD MART","Food Take Out","26 REXDALE BLVD, Unit-A","43.71427","-79.55778","Pass","2","FOOD PREMISE NOT MAINTAINED WITH FOOD HANDLING ROOM IN SANITARY CONDITION - SEC. 7(1)(E) ","2021-08-12","M - Minor","Notice to Comply","",""
"274","10625248","104871401","AMIN FOOD MART","Food Take Out","26 REXDALE BLVD, Unit-A","43.71427","-79.55778","Pass","2","FOOD PREMISE NOT MAINTAINED WITH CLEAN FLOORS IN FOOD-HANDLING ROOM - SEC. 7(1)(G)  ","2021-08-12","M - Minor","Notice to Comply","",""
"275","10625248","104871401","AMIN FOOD MART","Food Take Out","26 REXDALE BLVD, Unit-A","43.71427","-79.55778","Pass","2","FOOD PREMISE NOT MAINTAINED WITH CLEAN WALLS IN FOOD-HANDLING ROOM - SEC. 7(1)(G)  ","2021-08-12","M - Minor","Notice to Comply","",""
"276","10679410","104852129","AMOR A LA MEXICANA","Food Court Vendor","9 MILVAN DR, Unit-415","43.75125","-79.55202","Pass","2","","2021-06-18","","","",""
"277","10729965","104835957","AMPLE FOOD MARKET","Supermarket","605 ROGERS RD, Bldg-A2","43.68162","-79.47451","Pass","2","Fail to ensure presence of food handler or supervisor during all hours of operation - Sec. 32","2021-05-07","NA - Not Applicable","Notice to Comply","",""
"278","10729965","104867517","AMPLE FOOD MARKET","Supermarket","605 ROGERS RD, Bldg-A2","43.68162","-79.47451","Pass","2","USE UTENSILS NOT FREE FROM CRACKS IN CONTACT WITH FOOD - SEC. 8(2)(B)  ","2021-08-03","S - Significant","Notice to Comply","",""
"279","10729965","104867517","AMPLE FOOD MARKET","Supermarket","605 ROGERS RD, Bldg-A2","43.68162","-79.47451","Pass","2","FAIL TO ENSURE FACILITY SURFACE SANITIZED AS NECESSARY - SEC. 22","2021-08-03","S - Significant","Notice to Comply","",""
"280","10729965","104867517","AMPLE FOOD MARKET","Supermarket","605 ROGERS RD, Bldg-A2","43.68162","-79.47451","Pass","2","Display potentially hazardous foods at internal temperature between 4 C and 60 C - Sec. 27(1)","2021-08-03","C - Crucial","Notice to Comply","",""
"281","10729965","104867517","AMPLE FOOD MARKET","Supermarket","605 ROGERS RD, Bldg-A2","43.68162","-79.47451","Pass","2","Operate food premise - equipment not constructed to permit maintenance in sanitary condition - Sec. 9","2021-08-03","M - Minor","Notice to Comply","",""
"282","10729965","104867532","AMPLE FOOD MARKET","Supermarket","605 ROGERS RD, Bldg-A2","43.68162","-79.47451","Pass","2","","2021-08-09","","","",""
"283","10454259","104909311","AMS PIZZA & WINGS","Food Take Out","162 MAIN ST","43.68363","-79.30044","Pass","3","FAIL TO ENSURE EQUIPMENT SURFACE SANITIZED AS NECESSARY - SEC. 22","2021-11-16","M - Minor","Notice to Comply","",""
"284","10610421","104869548","AMSTERDAM BARREL HOUSE","Restaurant","87 LAIRD DR","43.70618","-79.36112","Pass","2","FAIL TO ENSURE EQUIPMENT SURFACE SANITIZED AS NECESSARY - SEC. 22","2021-08-09","M - Minor","Notice to Comply","",""
"285","10610421","104869548","AMSTERDAM BARREL HOUSE","Restaurant","87 LAIRD DR","43.70618","-79.36112","Pass","2","FOOD PREMISE NOT MAINTAINED WITH CLEAN FLOORS IN FOOD-HANDLING ROOM - SEC. 7(1)(G)  ","2021-08-09","M - Minor","Notice to Comply","",""
"286","10697594","104863139","AMSTERDAM BREWHOUSE","Restaurant","245 QUEENS QUAY W","43.63895","-79.38517","Pass","3","FOOD PREMISE NOT MAINTAINED WITH CLEAN FLOORS IN FOOD-HANDLING ROOM - SEC. 7(1)(G)  ","2021-07-19","M - Minor","Notice to Comply","",""
"287","10697594","104863139","AMSTERDAM BREWHOUSE","Restaurant","245 QUEENS QUAY W","43.63895","-79.38517","Pass","3","FAIL TO ENSURE EQUIPMENT SURFACE SANITIZED AS NECESSARY - SEC. 22","2021-07-19","M - Minor","Notice to Comply","",""
"288","10697594","104887608","AMSTERDAM BREWHOUSE","Restaurant","245 QUEENS QUAY W","43.63895","-79.38517","Pass","3","","2021-09-24","","","",""
"289","10718365","104878589","ANA'S SWEET CREATIONS","Bakery","664 SHEPPARD AVE W","43.75509","-79.4423","Pass","2","","2021-08-31","","","",""
"290","10694733","104899284","ANATOLIAN FINE FOODS MARKET","Supermarket","2437 FINCH AVE W, Unit-15","43.74969","-79.54987","Pass","2","","2021-10-22","","","",""
"291","10723363","104797792","ANDREW & SHELLEY'S NO FRILLS","Supermarket","900 DUFFERIN ST","43.65602","-79.43523","Pass","2","","2021-01-20","","","",""
"292","10368194","104920700","ANDREW'S PLACE BAR & RESTAURANT","Restaurant","1728 KINGSTON RD","43.69305","-79.26282","Pass","2","Food premise not maintained with ceilings in good repair in food-handling room - Sec. 7(1)(g)  ","2021-12-13","M - Minor","Notice to Comply","",""
"293","10368194","104920700","ANDREW'S PLACE BAR & RESTAURANT","Restaurant","1728 KINGSTON RD","43.69305","-79.26282","Pass","2","Food premise maintained in manner permitting adverse effect on food - Sec. 7(1)(a)(iii) ","2021-12-13","C - Crucial","Notice to Comply","",""
"294","10368194","104920700","ANDREW'S PLACE BAR & RESTAURANT","Restaurant","1728 KINGSTON RD","43.69305","-79.26282","Pass","2","FOOD PREMISE NOT MAINTAINED TO KEEP FOOD-HANDLING ROOM FREE FROM MATERIALS NOT REGULARLY USED - SEC. 7(1)(F) ","2021-12-13","M - Minor","Notice to Comply","",""
"295","10368194","104920700","ANDREW'S PLACE BAR & RESTAURANT","Restaurant","1728 KINGSTON RD","43.69305","-79.26282","Pass","2","Fail to protect against entry of pests - Sec. 13(1)","2021-12-13","M - Minor","Notice to Comply","",""
"296","10352327","104900923","ANDY'S SAUSAGES","Food Store (Convenience/Variety)","63 MULOCK AVE","43.66977","-79.46475","Pass","1","","2021-10-27","","","",""
"297","10696470","104850093","ANEJO RESTAURANT","Restaurant","600 KING ST W","43.64459","-79.4","Pass","2","","2021-06-14","","","",""
"298","10596092","104814467","ANGGONA FASHION PLUS","Food Store (Convenience/Variety)","320A PARLIAMENT ST","43.65965","-79.36636","Pass","1","","2021-03-10","","","",""
"299","10487481","104900977","ANGIE'S RESTAURANT","Restaurant","2647 EGLINTON AVE E","43.73555","-79.25109","Pass","2","","2021-10-27","","","",""
"300","10715174","104915405","ANGLR","Restaurant","1054 GERRARD ST E, Unit-A","43.66928","-79.33619","Pass","2","","2021-11-30","","","",""
"301","10693534","104913223","ANIMAL LIBRATION KITCHEN","Restaurant","100 BROADVIEW AVE, Unit-202","43.65813","-79.35019","Pass","2","FAIL TO PROVIDE THERMOMETER IN REFRIGERATION EQUIPMENT - SEC. 30(B)    ","2021-11-25","S - Significant","Corrected During Inspection","",""
"302","10685925","104820445","ANNA ROTI HOUSE","Restaurant","2367 KINGSTON RD","43.7077","-79.25005","Pass","2","","2021-03-25","","","",""
"303","10723272","104797262","ANNALAKSHMI","Restaurant","277 WELLINGTON ST W, Unit-100B","43.64475","-79.39172","Pass","3","FAIL TO PROVIDE THERMOMETER IN REFRIGERATION EQUIPMENT - SEC. 30(B)    ","2021-01-20","S - Significant","Corrected During Inspection","",""
"304","10723272","104797262","ANNALAKSHMI","Restaurant","277 WELLINGTON ST W, Unit-100B","43.64475","-79.39172","Pass","3","Fail to Ensure the Presence of the Holder of a Valid Food Handlers Certificate - Sec. 545- 157E(1 7)(a)","2021-01-20","NA - Not Applicable","Notice to Comply","",""
"305","9000650","104852972","ANNAPURNA","Restaurant","1085 BATHURST ST","43.67275","-79.41409","Pass","2","FOOD PREMISE NOT MAINTAINED WITH FOOD HANDLING ROOM IN SANITARY CONDITION - SEC. 7(1)(E) ","2021-06-21","M - Minor","Notice to Comply","",""
"306","10701835","104869801","ANNIES CARIBBEAN EXPRESS","Restaurant","3449 DUNDAS ST W","43.66543","-79.48662","Pass","2","","2021-08-09","","","",""
"307","10701835","104908574","ANNIES CARIBBEAN EXPRESS","Restaurant","3449 DUNDAS ST W","43.66543","-79.48662","Pass","2","","2021-11-15","","","",""
"308","10724489","104804230","ANOUSH MIDDLE EASTERN CUISINE","Restaurant","330 FRONT ST W","43.64341","-79.39119","Pass","2","Operate food premise - equipment not constructed to permit maintenance in sanitary condition - Sec. 9","2021-02-09","M - Minor","Notice to Comply","",""
"309","10724489","104804230","ANOUSH MIDDLE EASTERN CUISINE","Restaurant","330 FRONT ST W","43.64341","-79.39119","Pass","2","SANITIZE UTENSILS USING AGENT FOR WHICH TEST REAGENT NOT READILY AVAILABLE - SEC. 19(E)(III) ","2021-02-09","S - Significant","Corrected During Inspection","",""
"310","9000684","104831040","ANTICA VILLAGE DAY CARE","Child Care - Food Preparation","360 HULLMAR DR, Unit-6","43.77356","-79.52332","Pass","3","","2021-04-26","","","",""
"311","10733175","104854919","ANTOJITOS PICOSITO","Food Court Vendor","9 MILVAN DR, Unit-406","43.75125","-79.55202","Pass","2","","2021-06-25","","","",""
"312","10518829","104846533","AOYAMA SUSHI","Restaurant","2766 VICTORIA PARK AVE","43.78712","-79.32897","Pass","2","","2021-06-04","","","",""
"313","10518829","104897333","AOYAMA SUSHI","Restaurant","2766 VICTORIA PARK AVE","43.78712","-79.32897","Pass","2","","2021-10-18","","","",""
"314","9000698","104810481","APACHE BURGER","Restaurant","5236 DUNDAS ST W","43.63932","-79.53784","Pass","2","","2021-03-01","","","",""
"315","9061755","104780326","APKUJUNG RESTAURANT","Restaurant","6309 YONGE ST","43.79582","-79.41913","Pass","2","FAIL TO ENSURE EQUIPMENT SURFACE SANITIZED AS NECESSARY - SEC. 22","2021-06-03","M - Minor","Notice to Comply","",""
"316","10653215","104847090","APOTEX JEWISH HOME FOR THE AGED","Serving Kitchen","3560 BATHURST ST, Flr-1-7","43.73006","-79.43415","Pass","3","","2021-06-09","","","",""
"317","10733913","104858577","APPLE JACKS PRESCHOOL","Child Care - Catered","19 BENLAMOND AVE","43.68047","-79.30019","Pass","2","","2021-07-06","","","",""
"318","10742167","104901502","ARAMARK","Cafeteria - Private Access","1 MOUNT PLEASANT RD, Flr-2","43.67041","-79.37947","Pass","2","","2021-10-28","","","",""
"319","10708542","104863416","ARCANE","Restaurant","461 KING ST W","43.64508","-79.39638","Pass","2","","2021-07-20","","","",""
"320","10447704","104781162","ARCHIVE","Restaurant","909 DUNDAS ST W","43.65097","-79.41256","Pass","2","","2021-02-04","","","",""
"321","10583587","104804500","ARENA COFFEE BAR","Food Take Out","15 TANK HOUSE LANE","43.65051","-79.35858","Pass","2","","2021-02-09","","","",""
"322","10378139","104909773","ARIA RISTORANTE","Restaurant","25 YORK ST","43.64315","-79.38145","Pass","2","FAIL TO MAINTAIN HANDWASHING STATIONS (LIQUID SOAP AND PAPER TOWELS) - SEC. 7(3)(C)","2021-11-17","S - Significant","Corrected During Inspection","",""
"323","10378139","104909773","ARIA RISTORANTE","Restaurant","25 YORK ST","43.64315","-79.38145","Pass","2","FOOD PREMISE NOT MAINTAINED WITH CLEAN FLOORS IN FOOD-HANDLING ROOM - SEC. 7(1)(G)  ","2021-11-17","M - Minor","Notice to Comply","",""
"324","10247422","104819408","ARIS PLACE RESTAURANT","Restaurant","229 RONCESVALLES AVE","43.64605","-79.44881","Pass","2","OPERATE FOOD PREMISE - FAIL TO EQUIP SANITARY FACILITY WITH TOILET PAPER - SEC. 25(3)(B)  ","2021-03-23","S - Significant","Corrected During Inspection","",""
"325","10247422","104819408","ARIS PLACE RESTAURANT","Restaurant","229 RONCESVALLES AVE","43.64605","-79.44881","Pass","2","SANITIZE UTENSILS USING AGENT FOR WHICH TEST REAGENT NOT READILY AVAILABLE - SEC. 19(E)(III) ","2021-03-23","S - Significant","Corrected During Inspection","",""
"326","10379166","104913306","ARISU","Restaurant","584 BLOOR ST W","43.66494","-79.41259","Pass","2","","2021-11-25","","","",""
"327","9000761","104821402","ARIZONA B-BAR & GRILL","Restaurant","215 CARLINGVIEW DR, Unit-102","43.68347","-79.59246","Pass","2","","2021-03-29","","","",""
"328","9000761","104890685","ARIZONA B-BAR & GRILL","Restaurant","215 CARLINGVIEW DR, Unit-102","43.68347","-79.59246","Pass","2","FOOD PREMISE NOT MAINTAINED WITH FOOD HANDLING ROOM IN SANITARY CONDITION - SEC. 7(1)(E) ","2021-10-01","M - Minor","Notice to Comply","",""
"329","9031894","104917226","ARMENIAN COMMUNITY CENTRE","Banquet Facility","45 HALLCROWN PL","43.7701","-79.32174","Pass","3","OPERATE FOOD PREMISE - MECHANICAL EQUIPMENT NOT MAINTAINED TO MAINTAIN RINSE WATER AT 82 C - SEC. 20(1)(A)(II)(A) ","2021-12-06","S - Significant","Notice to Comply","",""
"330","9031894","104917435","ARMENIAN COMMUNITY CENTRE","Banquet Facility","45 HALLCROWN PL","43.7701","-79.32174","Pass","3","","2021-12-08","","","",""
"331","10335240","104878136","AROMA ESPRESSO BAR","Restaurant","2300 YONGE ST, Unit-C1","43.70716","-79.39908","Pass","3","Store ice in unsanitary manner - Sec.  26(5) ","2021-08-30","C - Crucial","Notice to Comply","",""
"332","10335240","104878136","AROMA ESPRESSO BAR","Restaurant","2300 YONGE ST, Unit-C1","43.70716","-79.39908","Pass","3","Use handwashing station other than for handwashing of employees - Sec. 7(4)","2021-08-30","S - Significant","Notice to Comply","",""
"333","10335240","104878136","AROMA ESPRESSO BAR","Restaurant","2300 YONGE ST, Unit-C1","43.70716","-79.39908","Pass","3","FOOD PREMISE NOT MAINTAINED WITH CLEAN FLOORS IN FOOD-HANDLING ROOM - SEC. 7(1)(G)  ","2021-08-30","M - Minor","Notice to Comply","",""
"334","10335240","104878208","AROMA ESPRESSO BAR","Restaurant","2300 YONGE ST, Unit-C1","43.70716","-79.39908","Pass","3","","2021-09-02","","","",""
"335","10516149","104912083","AROMA ESPRESSO BAR","Restaurant","2901 BAYVIEW AVE","43.76923","-79.38837","Pass","3","Operate food premise - mechanical equipment not designed to maintain rinse water at 82 C - Sec. 20(1)(a)(ii)(A) ","2021-11-23","S - Significant","Notice to Comply","",""
"336","10516149","104912083","AROMA ESPRESSO BAR","Restaurant","2901 BAYVIEW AVE","43.76923","-79.38837","Pass","3","Fail to provide handwashing stations with adequate supplies (hot and cold water) - Sec. 7(3)(c)","2021-11-23","S - Significant","Notice to Comply","",""
"337","10516149","104912093","AROMA ESPRESSO BAR","Restaurant","2901 BAYVIEW AVE","43.76923","-79.38837","Pass","3","","2021-12-14","","","",""
"338","10525076","104859196","AROMA ESPRESSO BAR","Restaurant","3791 BATHURST ST","43.73874","-79.43402","Pass","2","FAIL TO ENSURE FOOD HANDLER IN FOOD PREMISE PROTECTS AGAINST CONTAMINATION BY HAIR - SEC.  33(1)(D)","2021-07-08","M - Minor","Notice to Comply","",""
"339","10550381","104809950","AROMA ESPRESSO BAR","Restaurant","88 QUEENS QUAY W","43.64085","-79.37871","Pass","2","","2021-02-26","","","",""
"340","10572889","104813247","AROMA ESPRESSO BAR","Food Take Out","661 UNIVERSITY AVE","43.65946","-79.38955","Pass","2","USE EQUIPMENT NOT SUITABLE FOR INTENDED PURPOSE - SEC. 8(1)(D)  ","2021-03-08","S - Significant","Corrected During Inspection","",""
"341","10585519","104847299","AROMA ESPRESSO BAR","Restaurant","121 KING ST W","43.64743","-79.38324","Pass","2","","2021-06-07","","","",""
"342","10611585","104881523","AROMA ESPRESSO BAR","Restaurant","105 THE POND RD, Unit-R140","43.77005","-79.50239","Pass","2","","2021-09-09","","","",""
"343","10637569","104824852","AROMA ESPRESSO BAR","Restaurant","40 KING ST W, Unit-102","43.64869","-79.38023","Pass","2","","2021-04-08","","","",""
"344","10644685","104918660","AROMA ESPRESSO BAR","Restaurant","20 WELLINGTON ST E","43.6482","-79.37661","Pass","2","FAIL TO PROVIDE THERMOMETER IN REFRIGERATION EQUIPMENT - SEC. 30(B)    ","2021-12-08","S - Significant","Corrected During Inspection","",""
"345","10644685","104918660","AROMA ESPRESSO BAR","Restaurant","20 WELLINGTON ST E","43.6482","-79.37661","Pass","2","Hot-holding potentially hazardous foods at internal temperature below 60 C - Sec. 30(a)","2021-12-08","C - Crucial","Notice to Comply","",""
"346","10644685","104918737","AROMA ESPRESSO BAR","Restaurant","20 WELLINGTON ST E","43.6482","-79.37661","Pass","2","","2021-12-09","","","",""
"347","10665747","104792822","AROMA ESPRESSO BAR","Restaurant","383 SPADINA RD","43.68818","-79.41237","Pass","2","FOOD PREMISE NOT MAINTAINED WITH FOOD HANDLING ROOM IN SANITARY CONDITION - SEC. 7(1)(E) ","2021-01-07","M - Minor","Notice to Comply","",""
"348","10675314","104906546","AROMA ESPRESSO BAR","Restaurant","3343 YONGE ST","43.73133","-79.40352","Pass","2","FOOD PREMISE NOT MAINTAINED WITH CLEAN CEILING IN FOOD-HANDLING ROOM - SEC. 7(1)(G)  ","2021-11-10","M - Minor","Notice to Comply","",""
"349","10680469","104806845","AROMA ESPRESSO BAR","Restaurant","430 KING ST W","43.64577","-79.39416","Pass","2","","2021-02-18","","","",""
"350","10745092","104919277","AROMA ESPRESSO BAR","Restaurant","2040 AVENUE RD","43.73601","-79.42049","Pass","2","","2021-12-09","","","",""
"351","10550626","104811563","AROMA ESPRESSO BAR","Food Court Vendor","600 UNIVERSITY AVE, Unit-001","43.65751","-79.3903","Pass","3","","2021-03-03","","","",""
"352","10609346","104861285","AROMA ESPRESSO BAR","Restaurant","51 LOWER SIMCOE ST","43.64212","-79.38363","Pass","2","Fail to Ensure the Presence of the Holder of a Valid Food Handlers Certificate - Sec. 545- 157E(1 7)(a)","2021-07-14","NA - Not Applicable","Notice to Comply","",""
"353","9421922","104791388","AROMA FINE INDIAN CUISINE","Restaurant","287 KING ST W","43.64647","-79.38995","Pass","3","","2021-01-04","","","",""
"354","10730681","104841284","AROY URBAN THAI QUEEN","Restaurant","640 QUEEN ST W","43.64692","-79.40611","Pass","3","FOOD PREMISE NOT MAINTAINED WITH FOOD HANDLING ROOM IN SANITARY CONDITION - SEC. 7(1)(E) ","2021-05-19","M - Minor","Notice to Comply","",""
"355","10406753","104827321","ARPI NURSERY SCHOOL","Child Care - Food Preparation","39 CARL HALL RD","43.74698","-79.47794","Pass","3","","2021-04-16","","","",""
"356","10549848","104876212","ARS NURSERY","Child Care - Catered","45 HALLCROWN PL","43.7701","-79.32174","Pass","2","","2021-09-14","","","",""
"357","10744478","104915243","ART CAFE","Food Take Out","1921 EGLINTON AVE E, Unit-29","43.72701","-79.28814","Pass","2","","2021-11-30","","","",""
"358","10722095","104798967","ART OF BBQ SMOKE HOUSE","Restaurant","2478 KINGSTON RD","43.71034","-79.24905","Pass","3","Food premise not maintained with smooth floor surface where food handled - Sec. 7(1)(c)(i) ","2021-03-04","M - Minor","Notice to Comply","",""
"359","10722095","104798967","ART OF BBQ SMOKE HOUSE","Restaurant","2478 KINGSTON RD","43.71034","-79.24905","Pass","3","FOOD PREMISE NOT MAINTAINED WITH FOOD HANDLING ROOM IN SANITARY CONDITION - SEC. 7(1)(E) ","2021-03-04","M - Minor","Notice to Comply","",""
"360","10722095","104863618","ART OF BBQ SMOKE HOUSE","Restaurant","2478 KINGSTON RD","43.71034","-79.24905","Pass","3","FOOD PREMISE NOT MAINTAINED WITH CLEAN FLOORS IN FOOD-HANDLING ROOM - SEC. 7(1)(G)  ","2021-07-20","M - Minor","Notice to Comply","",""
"361","10722095","104863618","ART OF BBQ SMOKE HOUSE","Restaurant","2478 KINGSTON RD","43.71034","-79.24905","Pass","3","Fail to protect against harbouring of pests - Sec. 13(1)","2021-07-20","S - Significant","Notice to Comply","",""
"362","10722095","104863618","ART OF BBQ SMOKE HOUSE","Restaurant","2478 KINGSTON RD","43.71034","-79.24905","Pass","3","Maintain potentially hazardous foods at internal temperature between 4 C and 60 C -  Sec. 27(1)","2021-07-20","C - Crucial","Notice to Comply","",""
"363","10722095","104863618","ART OF BBQ SMOKE HOUSE","Restaurant","2478 KINGSTON RD","43.71034","-79.24905","Pass","3","Fail to protect against entry of pests - Sec. 13(1)","2021-07-20","M - Minor","Notice to Comply","",""
"364","10722095","104863619","ART OF BBQ SMOKE HOUSE","Restaurant","2478 KINGSTON RD","43.71034","-79.24905","Pass","3","FOOD PREMISE NOT MAINTAINED WITH CLEAN FLOORS IN FOOD-HANDLING ROOM - SEC. 7(1)(G)  ","2021-11-30","M - Minor","Notice to Comply","",""
"365","10670985","104916795","ARTISAN PLUS","Restaurant","122 DUNDAS ST W","43.65579","-79.38448","Pass","3","Fail to ensure completion of food handling training by food handler or supervisor - Sec. 32","2021-12-03","NA - Not Applicable","Notice to Comply","",""
"366","10718379","104872224","ARVO","Restaurant","80 ATLANTIC AVE, Unit-102","43.63876","-79.42103","Pass","2","","2021-08-16","","","",""
"367","10718379","104872742","ARVO","Restaurant","80 ATLANTIC AVE, Unit-102","43.63876","-79.42103","Pass","2","","2021-08-17","","","",""
"368","9022828","104800065","ARZ FINE FOOD SUPERMARKET","Supermarket","1909 LAWRENCE AVE E","43.74373","-79.30092","Pass","2","USE FOOD EQUIPMENT NOT OF SOUND AND TIGHT CONSTRUCTION - SEC. 8(1)(A) ","2021-01-28","S - Significant","Corrected During Inspection","",""
"369","9022828","104800065","ARZ FINE FOOD SUPERMARKET","Supermarket","1909 LAWRENCE AVE E","43.74373","-79.30092","Pass","2","FAIL TO ENSURE EQUIPMENT SURFACE SANITIZED AS NECESSARY - SEC. 22","2021-01-28","M - Minor","Notice to Comply","",""
"370","9022828","104800065","ARZ FINE FOOD SUPERMARKET","Supermarket","1909 LAWRENCE AVE E","43.74373","-79.30092","Pass","2","Food premise not maintained with floors in good repair in food-handling room - Sec. 7(1)(g)  ","2021-01-28","M - Minor","Notice to Comply","",""
"371","9053416","104797457","ARZON SUPER MARKET","Food Take Out","6103-6105 YONGE ST","43.79132","-79.41804","Pass","3","USE UTENSILS NOT IN GOOD REPAIR - SEC. 8(1)(B) ","2021-01-20","S - Significant","Corrected During Inspection","",""
"372","10743982","104912116","ASCARI EVENTS & CATERING","Food Caterer","3419 DUNDAS ST W, Bldg--","43.66534","-79.4852","Pass","3","Food premise not maintained with floors in good repair in food-handling room - Sec. 7(1)(g)  ","2021-11-23","M - Minor","Notice to Comply","",""
"373","10596830","104834656","ASCOT AVENUE COMMUNITY DAYCARE","Child Care - Catered","991 ST CLAIR AVE W","43.67866","-79.43638","Pass","2","","2021-05-04","","","",""
"374","10518330","104920777","ASIA DELIGHT","Food Court Vendor","85 ELLESMERE RD, Unit-F6","43.7571","-79.31241","Pass","3","FOOD PREMISE NOT MAINTAINED WITH FOOD HANDLING ROOM IN SANITARY CONDITION - SEC. 7(1)(E) ","2021-12-14","M - Minor","Notice to Comply","",""
"375","10215250","104903232","ASIAN  LEGEND","Restaurant","125 RAVEL RD","43.79065","-79.36724","Pass","3","Operate food premise - mechanical equipment not designed to maintain rinse water at 82 C - Sec. 20(1)(a)(ii)(A) ","2021-11-02","S - Significant","Notice to Comply","",""
"376","10215250","104903232","ASIAN  LEGEND","Restaurant","125 RAVEL RD","43.79065","-79.36724","Pass","3","USE FOOD EQUIPMENT NOT OF SOUND AND TIGHT CONSTRUCTION - SEC. 8(1)(A) ","2021-11-02","S - Significant","Notice to Comply","",""
"377","10215250","104903311","ASIAN  LEGEND","Restaurant","125 RAVEL RD","43.79065","-79.36724","Pass","3","","2021-11-04","","","",""
"378","10215250","104794583","ASIAN  LEGEND","Restaurant","125 RAVEL RD","43.79065","-79.36724","Pass","3","FOOD PREMISE NOT MAINTAINED WITH FOOD HANDLING ROOM IN SANITARY CONDITION - SEC. 7(1)(E) ","2021-01-13","M - Minor","Notice to Comply","",""
"379","10215250","104794583","ASIAN  LEGEND","Restaurant","125 RAVEL RD","43.79065","-79.36724","Pass","3","FOOD PREMISE NOT MAINTAINED WITH CLEAN CEILING IN FOOD-HANDLING ROOM - SEC. 7(1)(G)  ","2021-01-13","M - Minor","Notice to Comply","",""
"380","10215250","104794583","ASIAN  LEGEND","Restaurant","125 RAVEL RD","43.79065","-79.36724","Pass","3","Food premise not maintained with walls in good repair in food-handling room - Sec. 7(1)(g)  ","2021-01-13","M - Minor","Notice to Comply","",""
"381","10215250","104794583","ASIAN  LEGEND","Restaurant","125 RAVEL RD","43.79065","-79.36724","Pass","3","Fail to protect food from contamination or adulteration - Sec. 26(1) ","2021-01-13","C - Crucial","Notice to Comply","",""
"382","10215250","104794583","ASIAN  LEGEND","Restaurant","125 RAVEL RD","43.79065","-79.36724","Pass","3","Operate food premise - equipment not constructed to permit maintenance in sanitary condition - Sec. 9","2021-01-13","M - Minor","Notice to Comply","",""
"383","10215250","104794583","ASIAN  LEGEND","Restaurant","125 RAVEL RD","43.79065","-79.36724","Pass","3","Operate food premise - equipment not arranged to permit cleaning - Sec. 9","2021-01-13","M - Minor","Notice to Comply","",""
"384","10215250","104794583","ASIAN  LEGEND","Restaurant","125 RAVEL RD","43.79065","-79.36724","Pass","3","Fail to protect against harbouring of pests - Sec. 13(1)","2021-01-13","S - Significant","Notice to Comply","",""
"385","10215250","104794708","ASIAN  LEGEND","Restaurant","125 RAVEL RD","43.79065","-79.36724","Pass","3","","2021-01-26","","","",""
"386","10654608","104871475","ASIAN BUFFET","Restaurant","161 REXDALE BLVD","43.7109","-79.56888","Pass","2","Fail to protect against entry of pests - Sec. 13(1)","2021-08-12","M - Minor","Notice to Comply","",""
"387","10654608","104871475","ASIAN BUFFET","Restaurant","161 REXDALE BLVD","43.7109","-79.56888","Pass","2","FOOD PREMISE NOT MAINTAINED WITH CLEAN FLOORS IN FOOD-HANDLING ROOM - SEC. 7(1)(G)  ","2021-08-12","M - Minor","Notice to Comply","",""
"388","10654608","104871475","ASIAN BUFFET","Restaurant","161 REXDALE BLVD","43.7109","-79.56888","Pass","2","Fail to maintain ventilation system to ensure elimination of fumes - Sec. 11","2021-08-12","M - Minor","Notice to Comply","",""
"389","10654608","104871475","ASIAN BUFFET","Restaurant","161 REXDALE BLVD","43.7109","-79.56888","Pass","2","FOOD PREMISE NOT MAINTAINED TO KEEP FOOD-HANDLING ROOM FREE FROM EQUIPMENT NOT REGULARLY USED - SEC. 7(1)(F)   ","2021-08-12","M - Minor","Notice to Comply","",""
"390","9000810","104806246","ASIAN FOOD CENTRE","Butcher Shop","10 WESTMORE DR","43.74227","-79.60457","Pass","2","Fail to ensure equipment surface cleaned as necessary - Sec. 22","2021-02-16","S - Significant","Notice to Comply","",""
"391","9000810","104806246","ASIAN FOOD CENTRE","Butcher Shop","10 WESTMORE DR","43.74227","-79.60457","Pass","2","FOOD PREMISE NOT MAINTAINED WITH CLEAN WALLS IN FOOD-HANDLING ROOM - SEC. 7(1)(G)  ","2021-02-16","M - Minor","Notice to Comply","",""
"392","9000810","104806253","ASIAN FOOD CENTRE","Butcher Shop","10 WESTMORE DR","43.74227","-79.60457","Pass","2","","2021-02-18","","","",""
"393","9000810","104874094","ASIAN FOOD CENTRE","Butcher Shop","10 WESTMORE DR","43.74227","-79.60457","Pass","2","","2021-08-19","","","",""
"394","10695869","104806238","ASIAN FOOD CENTRE GOCERY SHOP","Supermarket","10 WESTMORE DR","43.74227","-79.60457","Pass","2","FOOD PREMISE NOT MAINTAINED WITH FOOD HANDLING ROOM IN SANITARY CONDITION - SEC. 7(1)(E) ","2021-02-16","M - Minor","Notice to Comply","",""
"395","10357814","104842747","ASIAN FUSION","Restaurant","3850 SHEPPARD AVE E, Unit-225","43.78394","-79.29225","Pass","3","FAIL TO ENSURE EQUIPMENT SURFACE SANITIZED AS NECESSARY - SEC. 22","2021-05-25","M - Minor","Notice to Comply","",""
"396","10357814","104842747","ASIAN FUSION","Restaurant","3850 SHEPPARD AVE E, Unit-225","43.78394","-79.29225","Pass","3","FOOD PREMISE NOT MAINTAINED WITH FOOD HANDLING ROOM IN SANITARY CONDITION - SEC. 7(1)(E) ","2021-05-25","M - Minor","Notice to Comply","",""
"397","9053706","104810510","ASIAN GOURMET","Restaurant","399 BATHURST ST, Unit-N","43.65371","-79.40606","Pass","2","Operate food premise - equipment not arranged to permit cleaning - Sec. 9","2021-03-02","M - Minor","Notice to Comply","",""
"398","10550126","104914153","ASIAN GOURMET","Restaurant","700 LAWRENCE AVE W","43.71693","-79.44743","Pass","2","FOOD PREMISE NOT MAINTAINED WITH CLEAN FLOORS IN FOOD-HANDLING ROOM - SEC. 7(1)(G)  ","2021-11-29","M - Minor","Notice to Comply","",""
"399","10550126","104914153","ASIAN GOURMET","Restaurant","700 LAWRENCE AVE W","43.71693","-79.44743","Pass","2","Fail to maintain ventilation system to ensure elimination of odours - Sec. 11","2021-11-29","M - Minor","Notice to Comply","",""
"400","10260636","104870107","ASIAN GOURMET WOK & GRILL","Food Take Out","1000 GERRARD ST E, Unit-F5","43.66943","-79.3393","Pass","2","FAIL TO ENSURE EQUIPMENT SURFACE SANITIZED AS NECESSARY - SEC. 22","2021-08-10","M - Minor","Notice to Comply","",""
"401","10301403","104842479","ASIAN GOURMET WOK & GRILL","Food Court Vendor","6228 YONGE ST, Unit-2","43.79555","-79.42008","Pass","3","FAIL TO ENSURE EQUIPMENT SURFACE SANITIZED AS NECESSARY - SEC. 22","2021-05-25","M - Minor","Notice to Comply","",""
"402","10488133","104905495","ASIAN LEGEND","Restaurant","900 DON MILLS RD, Unit-10","43.72691","-79.34211","Pass","3","FAIL TO ENSURE EQUIPMENT SURFACE SANITIZED AS NECESSARY - SEC. 22","2021-11-08","M - Minor","Notice to Comply","",""
"403","10745380","104921073","ASPIRING ACADEMICS PRESCHOOL","Child Care - Catered","2372 KINGSTON RD","43.70769","-79.25095","Pass","2","FAIL TO PROVIDE THERMOMETER IN REFRIGERATION EQUIPMENT - SEC. 30(B)    ","2021-12-10","S - Significant","Corrected During Inspection","",""
"404","10733075","104854319","ASTER'S REFINED CAKES","Bakery","2358 LAKE SHORE BLVD W","43.61628","-79.48827","Pass","2","","2021-06-24","","","",""
"405","10723013","104795710","ASTOR LOUNGE","Cocktail Bar / Beverage Room","325 BAY ST","43.64951","-79.37994","Pass","1","","2021-01-15","","","",""
"406","9000836","104847632","ASTORIA","Restaurant","390 DANFORTH AVE","43.67784","-79.35183","Pass","2","FOOD PREMISE NOT MAINTAINED WITH CLEAN WALLS IN FOOD-HANDLING ROOM - SEC. 7(1)(G)  ","2021-06-07","M - Minor","Notice to Comply","",""
"407","10744584","104916002","ATCHAYAM SOUTH INDIAN RESTAURANT","Restaurant","2655 LAWRENCE AVE E, Bldg-1","43.7512","-79.26283","Pass","3","FAIL TO ENSURE EQUIPMENT SURFACE SANITIZED AS NECESSARY - SEC. 22","2021-12-01","M - Minor","Notice to Comply","",""
"408","10744584","104916002","ATCHAYAM SOUTH INDIAN RESTAURANT","Restaurant","2655 LAWRENCE AVE E, Bldg-1","43.7512","-79.26283","Pass","3","FOOD PREMISE NOT MAINTAINED WITH FOOD HANDLING ROOM IN SANITARY CONDITION - SEC. 7(1)(E) ","2021-12-01","M - Minor","Notice to Comply","",""
"409","10744584","104916002","ATCHAYAM SOUTH INDIAN RESTAURANT","Restaurant","2655 LAWRENCE AVE E, Bldg-1","43.7512","-79.26283","Pass","3","Use handwashing station other than for handwashing of employees - Sec. 7(4)","2021-12-01","S - Significant","Notice to Comply","",""
"410","10744584","104916002","ATCHAYAM SOUTH INDIAN RESTAURANT","Restaurant","2655 LAWRENCE AVE E, Bldg-1","43.7512","-79.26283","Pass","3","FAIL TO MAINTAIN HANDWASHING STATIONS (LIQUID SOAP AND PAPER TOWELS) - SEC. 7(3)(C)","2021-12-01","S - Significant","Notice to Comply","",""
"411","10744584","104916041","ATCHAYAM SOUTH INDIAN RESTAURANT","Restaurant","2655 LAWRENCE AVE E, Bldg-1","43.7512","-79.26283","Pass","3","","2021-12-02","","","",""
"412","10390619","104821744","ATHENS PASTRIES","Restaurant","2567 VICTORIA PARK AVE","43.7736","-79.32216","Pass","2","","2021-03-30","","","",""
"413","10517611","104815947","ATHENS PASTRIES","Bake Shop","825 COXWELL AVE","43.68983","-79.32495","Pass","2","","2021-03-15","","","",""
"414","10531774","104918750","ATHENS PASTRIES","Bakery","14 BANIGAN DR","43.70486","-79.35293","Pass","2","FOOD PREMISE NOT MAINTAINED WITH CLEAN FLOORS IN FOOD-HANDLING ROOM - SEC. 7(1)(G)  ","2021-12-10","M - Minor","Notice to Comply","",""
"415","9000851","104814355","ATHENS RESTAURANT & TAVERN","Restaurant","707 DANFORTH AVE","43.67897","-79.34345","Pass","2","FAIL TO ENSURE EQUIPMENT SURFACE SANITIZED AS NECESSARY - SEC. 22","2021-03-10","M - Minor","Notice to Comply","",""
"416","9000851","104814355","ATHENS RESTAURANT & TAVERN","Restaurant","707 DANFORTH AVE","43.67897","-79.34345","Pass","2","FOOD PREMISE NOT MAINTAINED WITH CLEAN FLOORS IN FOOD-HANDLING ROOM - SEC. 7(1)(G)  ","2021-03-10","M - Minor","Notice to Comply","",""
"417","10728938","104829879","ATIYA'S  FRESH FARM INC","Food Vending Facility","1225 KENNEDY RD","43.75608","-79.27574","Pass","2","","2021-04-21","","","",""
"418","10733310","104856258","ATLANTIS AUTHENTIC GREEK CUISNE","Restaurant","526 DANFORTH AVE","43.67843","-79.34821","Pass","2","Food premise not maintained with ceilings in good repair in food-handling room - Sec. 7(1)(g)  ","2021-06-28","M - Minor","Notice to Comply","",""
"419","10732569","104851715","ATRIA SUSHI","Restaurant","2235 SHEPPARD AVE E, Unit-103","43.77273","-79.32786","Pass","3","","2021-06-17","","","",""
"420","9053355","104816902","ATRIUM AT KEW BEACH","Nursing Home / Home for the Aged","500 KINGSTON RD","43.67799","-79.30274","Pass","3","FOOD PREMISE NOT MAINTAINED WITH CLEAN FLOORS IN FOOD-HANDLING ROOM - SEC. 7(1)(G)  ","2021-03-17","M - Minor","Notice to Comply","",""
"421","9053355","104816902","ATRIUM AT KEW BEACH","Nursing Home / Home for the Aged","500 KINGSTON RD","43.67799","-79.30274","Pass","3","FAIL TO ENSURE EQUIPMENT SURFACE SANITIZED AS NECESSARY - SEC. 22","2021-03-17","M - Minor","Notice to Comply","",""
"422","10659796","104891745","AUGURI CAFE","Private Club","1974 EGLINTON AVE W","43.69505","-79.45439","Pass","1","","2021-10-04","","","",""
"423","10617557","104846479","AUGUST 8 DIM SUM & SUSHI","Restaurant","331 SPADINA AVE","43.65468","-79.3985","Pass","3","FOOD PREMISE NOT MAINTAINED WITH CLEAN FLOORS IN FOOD-HANDLING ROOM - SEC. 7(1)(G)  ","2021-06-03","M - Minor","Notice to Comply","",""
"424","10617557","104846479","AUGUST 8 DIM SUM & SUSHI","Restaurant","331 SPADINA AVE","43.65468","-79.3985","Pass","3","FAIL TO ENSURE EQUIPMENT SURFACE SANITIZED AS NECESSARY - SEC. 22","2021-06-03","M - Minor","Notice to Comply","",""
"425","10309376","104803907","AUNT ELSIES CARIBBEAN KITCHEN","Food Take Out","2689 EGLINTON AVE E","43.73609","-79.2499","Pass","2","USE UTENSILS NOT IN GOOD REPAIR - SEC. 8(1)(B) ","2021-02-08","S - Significant","Notice to Comply","",""
"426","10309376","104803907","AUNT ELSIES CARIBBEAN KITCHEN","Food Take Out","2689 EGLINTON AVE E","43.73609","-79.2499","Pass","2","Food premise maintained in manner permitting adverse effect on food - Sec. 7(1)(a)(iii) ","2021-02-08","C - Crucial","Notice to Comply","",""
"427","10309376","104803907","AUNT ELSIES CARIBBEAN KITCHEN","Food Take Out","2689 EGLINTON AVE E","43.73609","-79.2499","Pass","2","Fail to protect against harbouring of pests - Sec. 13(1)","2021-02-08","S - Significant","Notice to Comply","",""
"428","10309376","104803907","AUNT ELSIES CARIBBEAN KITCHEN","Food Take Out","2689 EGLINTON AVE E","43.73609","-79.2499","Pass","2","FOOD PREMISE NOT MAINTAINED TO KEEP FOOD-HANDLING ROOM FREE FROM EQUIPMENT NOT REGULARLY USED - SEC. 7(1)(F)   ","2021-02-08","M - Minor","Notice to Comply","",""
"429","10309376","104803907","AUNT ELSIES CARIBBEAN KITCHEN","Food Take Out","2689 EGLINTON AVE E","43.73609","-79.2499","Pass","2","FOOD PREMISE NOT MAINTAINED TO KEEP FOOD-HANDLING ROOM FREE FROM MATERIALS NOT REGULARLY USED - SEC. 7(1)(F) ","2021-02-08","M - Minor","Notice to Comply","",""
"430","10309376","104803910","AUNT ELSIES CARIBBEAN KITCHEN","Food Take Out","2689 EGLINTON AVE E","43.73609","-79.2499","Pass","2","","2021-02-23","","","",""
"431","10309376","104900972","AUNT ELSIES CARIBBEAN KITCHEN","Food Take Out","2689 EGLINTON AVE E","43.73609","-79.2499","Pass","2","","2021-10-27","","","",""
"432","10716183","104915740","AUNTIE LIZZY'S KITCHEN","Food Take Out","5010 STEELES AVE W, Unit-3","43.75962","-79.59301","Pass","2","","2021-12-01","","","",""
"433","10744427","104914827","AURA","Restaurant","686 QUEEN ST E","43.65884","-79.35081","Pass","2","SANITIZE UTENSILS USING AGENT FOR WHICH TEST REAGENT NOT READILY AVAILABLE - SEC. 19(E)(III) ","2021-11-29","S - Significant","Corrected During Inspection","",""
"434","10738741","104882390","AURA SUSHI","Food Court Vendor","384 YONGE ST","43.65931","-79.38256","Pass","2","","2021-09-10","","","",""
"435","10391090","104853494","AUTENTICA SPANISH FOODS AND EMPANADAS","Food Court Vendor","9 MILVAN DR, Unit-2A","43.75125","-79.55202","Pass","2","","2021-06-22","","","",""
"436","10726247","104814926","AUTHENTIC GREEK & MEDITERRANEAN EATERY","Restaurant","1585 WARDEN AVE, Unit-6","43.76624","-79.30181","Pass","2","","2021-03-11","","","",""
"437","10732114","104849311","AUTOMAT WHITE RABBIT","Food Caterer","225 HAMILTON ST","43.66482","-79.35318","Pass","3","Fail to protect against entry of pests - Sec. 13(1)","2021-06-10","M - Minor","Notice to Comply","",""
"438","10474078","104822712","AVA ESFEHAN (FOOD MARKET)","Supermarket","193 SHEPPARD AVE E","43.76381","-79.39917","Pass","3","FAIL TO ENSURE EQUIPMENT SURFACE SANITIZED AS NECESSARY - SEC. 22","2021-04-01","M - Minor","Notice to Comply","",""
"439","10474078","104822712","AVA ESFEHAN (FOOD MARKET)","Supermarket","193 SHEPPARD AVE E","43.76381","-79.39917","Pass","3","Food premise not maintained with ceilings in good repair in food-handling room - Sec. 7(1)(g)  ","2021-04-01","M - Minor","Notice to Comply","",""
"440","10474078","104822712","AVA ESFEHAN (FOOD MARKET)","Supermarket","193 SHEPPARD AVE E","43.76381","-79.39917","Pass","3","FOOD PREMISE NOT MAINTAINED WITH FOOD HANDLING ROOM IN SANITARY CONDITION - SEC. 7(1)(E) ","2021-04-01","M - Minor","Notice to Comply","",""
"441","10727627","104822813","AVA MEATS","Butcher Shop","195 SHEPPARD AVE E","43.76379","-79.39911","Pass","2","","2021-04-01","","","",""
"442","10504330","104822505","AVE MARIA CAFE LATINO & GROCERIES","Restaurant","631 BLOOR ST W","43.66443","-79.41444","Pass","2","","2021-03-31","","","",""
"443","9000890","104792152","AVELLINO SOCIAL CLUB","Private Club","3041 ISLINGTON AVE","43.7599","-79.57169","Pass","1","FOOD PREMISE NOT MAINTAINED TO KEEP FOOD-HANDLING ROOM FREE FROM EQUIPMENT NOT REGULARLY USED - SEC. 7(1)(F)   ","2021-01-05","M - Minor","Notice to Comply","",""
"444","9000890","104869897","AVELLINO SOCIAL CLUB","Private Club","3041 ISLINGTON AVE","43.7599","-79.57169","Pass","1","","2021-08-09","","","",""
"445","10679779","104813850","AVENUE CAFE + BISTRO","Restaurant","490 UNIVERSITY AVE","43.65519","-79.38907","Pass","2","","2021-03-09","","","",""
"446","10583024","104921434","AVENUE OPEN KITCHEN","Restaurant","7 CAMDEN ST","43.64716","-79.39645","Pass","2","","2021-12-15","","","",""
"447","10201707","104901432","AVENUE SEAFOOD","Fish Shop","1751 AVENUE RD","43.72913","-79.41813","Pass","3","FOOD PREMISE NOT MAINTAINED WITH FOOD HANDLING ROOM IN SANITARY CONDITION - SEC. 7(1)(E) ","2021-10-28","M - Minor","Notice to Comply","",""
"448","10201707","104901432","AVENUE SEAFOOD","Fish Shop","1751 AVENUE RD","43.72913","-79.41813","Pass","3","FAIL TO ENSURE FOOD HANDLER IN FOOD PREMISE PROTECTS AGAINST CONTAMINATION BY HAIR - SEC.  33(1)(D)","2021-10-28","M - Minor","Corrected During Inspection","",""
"449","10201707","104901432","AVENUE SEAFOOD","Fish Shop","1751 AVENUE RD","43.72913","-79.41813","Pass","3","FOOD PREMISE NOT MAINTAINED TO KEEP FOOD-HANDLING ROOM FREE FROM MATERIALS NOT REGULARLY USED - SEC. 7(1)(F) ","2021-10-28","M - Minor","Notice to Comply","",""
"450","10201707","104901432","AVENUE SEAFOOD","Fish Shop","1751 AVENUE RD","43.72913","-79.41813","Pass","3","USE FOOD EQUIPMENT NOT OF READILY CLEANABLE FORM - SEC.  8(1)(C)  ","2021-10-28","S - Significant","Corrected During Inspection","",""
"451","10366978","104898854","AVO CONVENIENCE","Food Take Out","5200 FINCH AVE W","43.74358","-79.58277","Pass","2","Fail to ensure presence of food handler or supervisor during all hours of operation - Sec. 32","2021-10-21","NA - Not Applicable","Notice to Comply","",""
"452","10366978","104898854","AVO CONVENIENCE","Food Take Out","5200 FINCH AVE W","43.74358","-79.58277","Pass","2","FAIL TO PROVIDE THERMOMETER IN REFRIGERATION EQUIPMENT - SEC. 30(B)    ","2021-10-21","S - Significant","Corrected During Inspection","",""
"453","10366978","104898854","AVO CONVENIENCE","Food Take Out","5200 FINCH AVE W","43.74358","-79.58277","Pass","2","Fail to maintain ventilation system to ensure elimination of fumes - Sec. 11","2021-10-21","M - Minor","Notice to Comply","",""
"454","10604429","104801836","AVOCA CHOCOLATIER","Restaurant","850 MILLWOOD RD","43.70462","-79.36655","Pass","2","","2021-02-03","","","",""
"455","10608903","104851844","AXIS CAFE","Restaurant","3048 DUNDAS ST W","43.66568","-79.47096","Pass","2","FOOD PREMISE NOT MAINTAINED WITH CLEAN CEILING IN FOOD-HANDLING ROOM - SEC. 7(1)(G)  ","2021-06-17","M - Minor","Notice to Comply","",""
"456","10731249","104844344","AYA260 SUSHI","Restaurant","260 RICHMOND ST E","43.65312","-79.37024","Pass","3","","2021-05-28","","","",""
"457","10475099","104889613","AZARIAS","Restaurant","3058 BLOOR ST W","43.647","-79.51331","Pass","2","","2021-09-29","","","",""
"458","10575062","104801953","AZTECA RESTAURANT","Restaurant","1115 BLOOR ST W","43.65993","-79.43477","Pass","3","Fail to protect against harbouring of pests - Sec. 13(1)","2021-02-03","S - Significant","Notice to Comply","",""
"459","10575062","104801953","AZTECA RESTAURANT","Restaurant","1115 BLOOR ST W","43.65993","-79.43477","Pass","3","Fail to Ensure the Presence of the Holder of a Valid Food Handlers Certificate - Sec. 545- 157E(1 7)(a)","2021-02-03","NA - Not Applicable","Notice to Comply","",""
"460","10575062","104801953","AZTECA RESTAURANT","Restaurant","1115 BLOOR ST W","43.65993","-79.43477","Pass","3","FOOD PREMISE NOT MAINTAINED WITH CLEAN FLOORS IN FOOD-HANDLING ROOM - SEC. 7(1)(G)  ","2021-02-03","M - Minor","Notice to Comply","",""
"461","10575062","104803900","AZTECA RESTAURANT","Restaurant","1115 BLOOR ST W","43.65993","-79.43477","Pass","3","","2021-02-08","","","",""
"462","10575062","104897870","AZTECA RESTAURANT","Restaurant","1115 BLOOR ST W","43.65993","-79.43477","Pass","3","FOOD PREMISE NOT MAINTAINED TO KEEP FOOD-HANDLING ROOM FREE FROM EQUIPMENT NOT REGULARLY USED - SEC. 7(1)(F)   ","2021-10-19","M - Minor","Notice to Comply","",""
"463","10575062","104897870","AZTECA RESTAURANT","Restaurant","1115 BLOOR ST W","43.65993","-79.43477","Pass","3","OPERATE FOOD PREMISE - FAIL TO EQUIP SANITARY FACILITY WITH SOAP OR DETERGENT - SEC. 24(3)(D)  ","2021-10-19","S - Significant","Corrected During Inspection","",""
"464","10508087","104841936","AZURE RESTAURANT & BAR / INTERCONTINENTAL HOTEL","Restaurant","225 FRONT ST W","43.64472","-79.38516","Pass","2","","2021-05-21","","","",""
"465","9010201","104794660","AZZURI 82 SUPPORTERS ASSOCIATION","Private Club","10 SATTERLY RD, Unit-2","43.7588","-79.57014","Pass","1","","2021-01-13","","","",""
"466","10744807","104917453","Abacus Montessori Learning Centre","Child Care - Food Preparation","2723 ST CLAIR AVE E","43.70575","-79.31008","Pass","2","","2021-12-08","","","",""
"467","10657539","104879156","Agile Innovators Montessori","Child Care - Catered","390 BAMBURGH CRCL","43.81655","-79.32381","Pass","3","","2021-09-01","","","",""
"468","10326080","104822528","Al Premium Food Mart","Supermarket","250 ALTON TOWERS CRCL, Unit-Aa1","43.82485","-79.27754","Pass","2","Food premise not maintained with tight floor surface where food handled - Sec. 7(1)(c)(i)  ","2021-03-31","M - Minor","Notice to Comply","",""
"469","10440179","104817974","Al Premium Food Mart","Supermarket","1970 EGLINTON AVE E","43.72857","-79.2854","Pass","3","FOOD PREMISE NOT MAINTAINED WITH FOOD HANDLING ROOM IN SANITARY CONDITION - SEC. 7(1)(E) ","2021-03-19","M - Minor","Notice to Comply","",""
"470","10440179","104878273","Al Premium Food Mart","Supermarket","1970 EGLINTON AVE E","43.72857","-79.2854","Pass","3","","2021-08-30","","","",""
"471","10577500","104801015","Al-Nour Halal Meat and Grocery","Butcher Shop","5650 SHEPPARD AVE E, Unit-1","43.79494","-79.23569","Pass","2","FOOD PREMISE NOT MAINTAINED WITH FOOD HANDLING ROOM IN SANITARY CONDITION - SEC. 7(1)(E) ","2021-02-01","M - Minor","Notice to Comply","",""
"472","10577500","104801015","Al-Nour Halal Meat and Grocery","Butcher Shop","5650 SHEPPARD AVE E, Unit-1","43.79494","-79.23569","Pass","2","FAIL TO ENSURE EQUIPMENT SURFACE SANITIZED AS NECESSARY - SEC. 22","2021-02-01","M - Minor","Notice to Comply","",""
"473","10542558","104905801","Ali Baba's Restaurant","Restaurant","2389 FINCH AVE W","43.75128","-79.54388","Pass","2","","2021-11-08","","","",""
"474","10484520","104803903","Allstar Wings & Ribs","Restaurant","1245 MCCOWAN RD, Unit-2","43.77365","-79.25135","Pass","2","FAIL TO MAINTAIN HANDWASHING STATIONS (LIQUID SOAP AND PAPER TOWELS) - SEC. 7(3)(C)","2021-02-08","S - Significant","Corrected During Inspection","",""
"475","10588710","104822116","Amazing Shawarma Inc.","Restaurant","2650 LAWRENCE AVE E, -Unit- 2A","43.75218","-79.26388","Pass","2","FOOD PREMISE NOT MAINTAINED WITH FOOD HANDLING ROOM IN SANITARY CONDITION - SEC. 7(1)(E) ","2021-03-30","M - Minor","Notice to Comply","",""
"476","10588710","104822116","Amazing Shawarma Inc.","Restaurant","2650 LAWRENCE AVE E, -Unit- 2A","43.75218","-79.26388","Pass","2","FAIL TO ENSURE EQUIPMENT SURFACE SANITIZED AS NECESSARY - SEC. 22","2021-03-30","M - Minor","Notice to Comply","",""
"477","10731346","104844828","Angelic Treasures Christian Daycare","Child Care - Food Preparation","155 GORDON BAKER RD","43.80446","-79.34405","Pass","2","Operate food premise - equipment not constructed to permit maintenance in sanitary condition - Sec. 9","2021-05-27","M - Minor","Notice to Comply","",""
